{"type":"FeatureCollection","features":[{"type":"Feature","properties":{"都道府県":"滋賀","データ種別":"景観重要建造物","ID":"3525201001","都道府県コード":"25","市区町村":"大津市","市区町村コード":"25201","指定番号":"第1号","指定年月日":"20100315","名称":"旧大津公会堂","住所":"大津市浜大津1-4-1","説明":"昭和9年に建設された旧大津公会堂は、名称や用途を様々に変えながら市民の交流の場として親しまれてきた。(以下詳細 別記 A35g-14_25_link.csv)"},"geometry":{"type":"Point","coordinates":[135.865348,35.010441]}},{"type":"Feature","properties":{"都道府県":"滋賀","データ種別":"景観重要建造物","ID":"3525201002","都道府県コード":"25","市区町村":"大津市","市区町村コード":"25201","指定番号":"第2号","指定年月日":"20100315","名称":"海門山満月寺浮御堂","住所":"大津市本堅田1-16-18","説明":"琵琶湖上に建つ木造平野建ての瓦葺きの三間仏堂で、湖畔から延びる長さ役17mの橋が架かる。平安中期に湖上安全と衆生済度を願って千体の阿弥陀仏を安置する堂を建てたのを始まりと伝える。近江八景のひとつ｢堅田の落雁｣で知らせる景勝地の重要な構成要素である。"},"geometry":{"type":"Point","coordinates":[135.921574,35.10985]}},{"type":"Feature","properties":{"都道府県":"滋賀","データ種別":"景観重要建造物","ID":"3525201003","都道府県コード":"25","市区町村":"大津市","市区町村コード":"25201","指定番号":"第3号","指定年月日":"20100315","名称":"出島の灯台","住所":"大津市今堅田1-274-1","説明":"琵琶湖の最狭部に位置する今堅田の岬の先端に、明治8年(1857）に建てられた。高床形式で、四隅の柱と中心の支柱の計五本で支え、支柱の頂部に火袋を取り付ける。光源は大正7年(1918)まではランプを使用し、それ以後は電灯に切り換えた。(以下詳細 別記 A35g-14_25_link.csv)"},"geometry":{"type":"Point","coordinates":[135.927972,35.117498]}},{"type":"Feature","properties":{"都道府県":"滋賀","データ種別":"景観重要建造物","ID":"3525201004","都道府県コード":"25","市区町村":"大津市","市区町村コード":"25201","指定番号":"第4号","指定年月日":"20100315","名称":"旧竹林院","住所":"大津市坂本5-2-13","説明":"延暦寺の旧里坊竹林院の地に別荘を営んだ数奇者藪田氏により、現在の茶室などが大正年間に建てられたと考えられる。庭園の中に二棟の茶室と四阿が配置され、一連に使用することができるようになっている。(以下詳細 別記 A35g-14_25_link.csv)"},"geometry":{"type":"Point","coordinates":[135.866099,35.071527]}},{"type":"Feature","properties":{"都道府県":"滋賀","データ種別":"景観重要建造物","ID":"3525201005","都道府県コード":"25","市区町村":"大津市","市区町村コード":"25201","指定番号":"第5号","指定年月日":"20100315","名称":"比叡山鉄道ケーブル 坂本駅舎","住所":"大津市坂本本町4244","説明":"琵琶湖側から延暦寺への参詣の便を図るために昭和2年敷設されたケーブルカーの駅舎である。2階の縦長の窓や入口の庇を支える金属製の持ち送りなど、延暦寺駅舎と共通する意匠の特長をもつが、簡潔な仕上げとなっている。(以下詳細 別記 A35g-14_25_link.csv)"},"geometry":{"type":"Point","coordinates":[135.863982,35.069687]}},{"type":"Feature","properties":{"都道府県":"滋賀","データ種別":"景観重要建造物","ID":"3525201006","都道府県コード":"25","市区町村":"大津市","市区町村コード":"25201","指定番号":"第6号","指定年月日":"20100315","名称":"比叡山鉄道ケーブル 延暦寺駅舎","住所":"大津市坂本本町4244","説明":"2階の縦長の窓や入口の庇を支える金属製の持ち送りなど、坂本駅舎と共通する意匠の特長をもつが、全体的にやや重厚な仕上げとなっている。待合室は腰にタイルを張り、柱や梁･壁の境に陶器ビート繰型状の縁取りをつけるなど装飾が施されている。"},"geometry":{"type":"Point","coordinates":[135.843977,35.066533]}},{"type":"Feature","properties":{"都道府県":"滋賀","データ種別":"景観重要建造物","ID":"3525201007","都道府県コード":"25","市区町村":"大津市","市区町村コード":"25201","指定番号":"第7号","指定年月日":"20100315","名称":"公人屋敷","住所":"大津市坂本6-27-10","説明":"江戸時代、公人として延暦寺に仕えた旧岡本家の住宅。南北に細長い敷地の中で南の道に面して門を開き、すこし奥まって主屋があり、北奥に米蔵と馬屋が並ぶ。(以下詳細 別記 A35g-14_25_link.csv)"},"geometry":{"type":"Point","coordinates":[135.872565,35.071298]}},{"type":"Feature","properties":{"都道府県":"滋賀","データ種別":"景観重要建造物","ID":"3525202001","都道府県コード":"25","市区町村":"彦根市","市区町村コード":"25202","指定番号":"第2202‐0001号","指定年月日":"20100201","名称":"旧鈴木屋敷長屋門","住所":"彦根市立花町","説明":"棟束に文久2年(1862)の墨書があり、幕末の建物である。彦根藩の中級武家屋敷の典型をなす長屋門として貴重であることおよび城下町の歴史的景観を先導する建物です。桁行8間、梁間2間の切妻造り。(以下詳細 別記 A35g-14_25_link.csv)"},"geometry":{"type":"Point","coordinates":[136.255217,35.272077]}},{"type":"Feature","properties":{"都道府県":"滋賀","データ種別":"景観重要建造物","ID":"3525202002","都道府県コード":"25","市区町村":"彦根市","市区町村コード":"25202","指定番号":"第2202‐0002号","指定年月日":"20100201","名称":"金亀会館","住所":"彦根市中央町","説明":"特別史跡彦根城跡内にあった彦根藩の藩校弘道館の講堂を大正12年に現在の中央町に移築された建物で、彦根藩校の唯一現存する建物であることおよび城下町の歴史的景観を先導する建物です。(以下詳細 別記 A35g-14_25_link.csv)"},"geometry":{"type":"Point","coordinates":[136.25504,35.268482]}},{"type":"Feature","properties":{"都道府県":"滋賀","データ種別":"景観重要建造物","ID":"3525202003","都道府県コード":"25","市区町村":"彦根市","市区町村コード":"25202","指定番号":"第2202‐0003号","指定年月日":"20100201","名称":"中村商家保存館(主屋・文庫蔵・酒蔵)","住所":"彦根市旭町","説明":"彦根城下の東部地区を南北に通る町屋街の角地にある元酒小売店舗。明治末に改築された建物であるが、江戸期の様式が残り、城下町の歴史的景観を先導する建物です。(以下詳細 別記 A35g-14_25_link.csv)"},"geometry":{"type":"Point","coordinates":[136.26123,35.274062]}},{"type":"Feature","properties":{"都道府県":"滋賀","データ種別":"景観重要建造物","ID":"3525202004","都道府県コード":"25","市区町村":"彦根市","市区町村コード":"25202","指定番号":"第2202‐0004号","指定年月日":"20100201","名称":"旧彦根藩足軽組屋敷(善利組・中居家住宅)","住所":"彦根市芹橋2","説明":"足軽屋敷の形態を良く残し、城下町の歴史的景観を先導する建物です。主屋は、間口5間、奥行5間半の切妻造・桟瓦葺の中二階形式で通りに面して妻面を見せ、表に向かって下屋をかける。(以下詳細 別記 A35g-14_25_link.csv)"},"geometry":{"type":"Point","coordinates":[136.247648,35.268741]}},{"type":"Feature","properties":{"都道府県":"滋賀","データ種別":"景観重要建造物","ID":"3525202005","都道府県コード":"25","市区町村":"彦根市","市区町村コード":"25202","指定番号":"第2202‐0005号","指定年月日":"20100201","名称":"旧彦根藩足軽組屋敷(善利組・太田家住宅)","住所":"彦根市芹橋2","説明":"足軽屋敷の形態を良く残し、城下町の歴史的景観を先導する建物です。主屋が切妻造り・平入り。道に対して直角に棟を配しており、切妻に下屋を付け、外壁は塀と一体化しています。(以下詳細 別記 A35g-14_25_link.csv)"},"geometry":{"type":"Point","coordinates":[136.249357,35.269007]}},{"type":"Feature","properties":{"都道府県":"滋賀","データ種別":"景観重要建造物","ID":"3525202006","都道府県コード":"25","市区町村":"彦根市","市区町村コード":"25202","指定番号":"第2202‐0006号","指定年月日":"20100201","名称":"旧彦根藩足軽組辻番所 旧彦根藩足軽組屋敷(善利組・旧礒島家住宅)","住所":"彦根市芹橋2","説明":"辻番所は、4畳余りの小さな建物であるが、足軽屋敷の辻に設けられた辻番所として現存唯一の貴重な建物であることおよび城下町の歴史的景観を先導する建物です。(以下詳細 別記 A35g-14_25_link.csv)"},"geometry":{"type":"Point","coordinates":[136.249707,35.268297]}},{"type":"Feature","properties":{"都道府県":"滋賀","データ種別":"景観重要建造物","ID":"3525202007","都道府県コード":"25","市区町村":"彦根市","市区町村コード":"25202","指定番号":"第2303‐0007号","指定年月日":"20110322","名称":"旧西郷屋敷長屋門 附袖塀および高麗門","住所":"彦根市金亀町","説明":"寛保2年(1742)に建立され、明治16年(1833)に現在の位置に移築されたと考えられています。(以下詳細 別記 A35g-14_25_link.csv)"},"geometry":{"type":"Point","coordinates":[136.252665,35.273216]}},{"type":"Feature","properties":{"都道府県":"滋賀","データ種別":"景観重要建造物","ID":"3525202008","都道府県コード":"25","市区町村":"彦根市","市区町村コード":"25202","指定番号":"第2303‐0008号","指定年月日":"20110322","名称":"旧広田家(納屋七)住宅","住所":"彦根市城町1","説明":"背面突出部の鬼瓦に安永7年(1778)の刻銘があることから、そのころに建築されたと推測される。建物は、魚屋が集中して居住していた旧下魚屋町の西端に位置しています。主屋は、桁行7間半、梁間7間の切妻平入の建物となっている。(以下詳細 別記 A35g-14_25_link.csv)"},"geometry":{"type":"Point","coordinates":[136.246814,35.274578]}},{"type":"Feature","properties":{"都道府県":"滋賀","データ種別":"景観重要建造物","ID":"3525202009","都道府県コード":"25","市区町村":"彦根市","市区町村コード":"25202","指定番号":"第2303‐0009号","指定年月日":"20110322","名称":"旧彦根藩足軽組屋敷(善利組・林家住宅)","住所":"彦根市芹橋2","説明":"棟木に天明7年(1787)と記した地鎮祭の祈祷札があることから江戸時代中期の建築と推測される。これまで確認できた彦根の足軽屋敷において現存最古の建物で、足軽屋敷の形態を良く残し、城下町の歴史的景観を先導する建物です。(以下詳細 別記 A35g-14_25_link.csv)"},"geometry":{"type":"Point","coordinates":[136.247383,35.268415]}},{"type":"Feature","properties":{"都道府県":"滋賀","データ種別":"景観重要建造物","ID":"3525202010","都道府県コード":"25","市区町村":"彦根市","市区町村コード":"25202","指定番号":"第2303‐0010号","指定年月日":"20110322","名称":"旧池田屋敷長屋門","住所":"彦根市尾末町","説明":"長屋門は、桁行10間、梁間2間の入母屋造・桟瓦葺の建物で彦根藩の中級武家屋敷の典型をなす貴重な長屋門です。正面の外壁は、内法高まで簓子下見板張り、上部を漆喰塗りの大壁とし、2箇所の格子窓を設けています。(以下詳細 別記 A35g-14_25_link.csv)"},"geometry":{"type":"Point","coordinates":[136.256529,35.276544]}},{"type":"Feature","properties":{"都道府県":"滋賀","データ種別":"景観重要建造物","ID":"3525202011","都道府県コード":"25","市区町村":"彦根市","市区町村コード":"25202","指定番号":"第2303‐0011号","指定年月日":"20110322","名称":"滋賀大学陵水会館","住所":"彦根市馬場1","説明":"ヴォーリズ建築事務所の設計により昭和13年(1938)に建築され、外観は当時の意匠を残しています。(以下詳細 別記 A35g-14_25_link.csv)"},"geometry":{"type":"Point","coordinates":[136.245689,35.277338]}},{"type":"Feature","properties":{"都道府県":"滋賀","データ種別":"景観重要建造物","ID":"3525202012","都道府県コード":"25","市区町村":"彦根市","市区町村コード":"25202","指定番号":"第2303‐0012号","指定年月日":"20110322","名称":"滋賀大学講堂(旧彦根高等商業学校講堂)","住所":"彦根市馬場1","説明":"大正13年(1924)に建築され、外観は屋根葺材が改修されているものに当時の意匠を残しています。外観は、桟瓦葺きの切妻造りの屋根に正面の妻面上部にコーニス(軒蛇腹)を用いてペディメント(三角形)を型取り、柱形付け玄関を設ける。(以下詳細 別記 A35g-14_25_link.csv)"},"geometry":{"type":"Point","coordinates":[136.247155,35.276845]}},{"type":"Feature","properties":{"都道府県":"滋賀","データ種別":"景観重要建造物","ID":"3525202013","都道府県コード":"25","市区町村":"彦根市","市区町村コード":"25202","指定番号":"第2303‐0013号","指定年月日":"20110322","名称":"スミス記念堂(旧須美壽記念禮拜堂)","住所":"彦根市本町3","説明":"昭和6年建立の和風礼拝堂。都市計画道路整備事業に伴い、NPO法人スミス会議が中心に保存運動に取り組み、平成19年に現地に移築復原されています。建物は、桁行4間、梁間3間、向拝1間、一重、入母屋造、桟瓦葺、向唐破風付向拝銅板葺。(以下詳細 別記 A35g-14_25_link.csv)"},"geometry":{"type":"Point","coordinates":[136.249288,35.27384]}},{"type":"Feature","properties":{"都道府県":"滋賀","データ種別":"景観重要建造物","ID":"3525202014","都道府県コード":"25","市区町村":"彦根市","市区町村コード":"25202","指定番号":"第2312‐0014号","指定年月日":"20111220","名称":"奥野家住宅","住所":"彦根市本町2","説明":"旧上魚屋町の東端に位置し、当該魚屋町通りを代表する最大級の町家の建造物です。江戸時代は、郷宿を、明治時代から昭和30年頃にかけて醤油の製造販売業を営んでいました。(以下詳細 別記 A35g-14_25_link.csv)"},"geometry":{"type":"Point","coordinates":[136.251245,35.271228]}},{"type":"Feature","properties":{"都道府県":"滋賀","データ種別":"景観重要建造物","ID":"3525202015","都道府県コード":"25","市区町村":"彦根市","市区町村コード":"25202","指定番号":"第2312‐0015号","指定年月日":"20111220","名称":"宗安寺(本堂・鐘楼・表門)","住所":"彦根市本町2","説明":"本堂は、元禄14年(1701)の大火で焼失後、元禄15年(1702)に長浜城附属御殿を移築されたものと伝えられます。間口10間半、奥行8間半。入母屋造の桟瓦葺。鐘楼は、江戸期の建物で入母屋造の桟瓦葺。袴腰付の鐘つき堂。(以下詳細 別記 A35g-14_25_link.csv)"},"geometry":{"type":"Point","coordinates":[136.250772,35.270716]}},{"type":"Feature","properties":{"都道府県":"滋賀","データ種別":"景観重要建造物","ID":"3525202016","都道府県コード":"25","市区町村":"彦根市","市区町村コード":"25202","指定番号":"第2312‐0016号","指定年月日":"20111220","名称":"村岸家住宅","住所":"彦根市沼波町","説明":"彦根道にある「七曲がり」の屈曲部分に面する、江戸時代後期を代表する町家の建造物で、城下町の歴史的景観を先導する建物です。主屋は、桁行9.2m、梁間14m。切妻平入り、桟瓦葺2階建。(以下詳細 別記 A35g-14_25_link.csv)"},"geometry":{"type":"Point","coordinates":[136.258515,35.257887]}},{"type":"Feature","properties":{"都道府県":"滋賀","データ種別":"景観重要建造物","ID":"3525202017","都道府県コード":"25","市区町村":"彦根市","市区町村コード":"25202","指定番号":"第2312‐0017号","指定年月日":"20111220","名称":"滋賀中央信用金庫銀座支店(旧明治銀行本店)","住所":"彦根市河原3","説明":"旧明治銀行彦根支店として大正7年(1918)に建築される。「花しょうぶ通り」の入口である「久座の辻」の交差点東北角に位置し、大正時代の外観を良く残し、彦根の近代化遺産を代表とする建造物です。(以下詳細 別記 A35g-14_25_link.csv)"},"geometry":{"type":"Point","coordinates":[136.255051,35.266171]}},{"type":"Feature","properties":{"都道府県":"滋賀","データ種別":"景観重要建造物","ID":"3525202018","都道府県コード":"25","市区町村":"彦根市","市区町村コード":"25202","指定番号":"第2312‐0018号","指定年月日":"20111220","名称":"俳遊館(旧彦根信用組合本店)","住所":"彦根市本町1","説明":"旧彦根信用組合本店として大正12年(1923)に建築される。旧白壁町通りに面する、大正時代の近代化遺産を代表する建造物です。木造2階建、寄棟造、カラーベスト葺。(以下詳細 別記 A35g-14_25_link.csv)"},"geometry":{"type":"Point","coordinates":[136.253991,35.270359]}},{"type":"Feature","properties":{"都道府県":"滋賀","データ種別":"景観重要建造物","ID":"3525203001","都道府県コード":"25","市区町村":"長浜市","市区町村コード":"25203","指定番号":"第1号","指定年月日":"20110321","名称":"長刀山山蔵","住所":"長浜市朝日町302","説明":"長浜曳山祭の曳山を収納する各山蔵は、様々な曳山行事が繰り広げられる歴史的なまちなみの中で、長浜ならではの風情や情緒を漂わせる重要な構成要素であることから、景観重要建造物に指定する。"},"geometry":{"type":"Point","coordinates":[136.268051,35.374917]}},{"type":"Feature","properties":{"都道府県":"滋賀","データ種別":"景観重要建造物","ID":"3525203002","都道府県コード":"25","市区町村":"長浜市","市区町村コード":"25203","指定番号":"第2号","指定年月日":"20110321","名称":"月宮殿山蔵","住所":"長浜市朝日町43・45","説明":"長浜曳山祭の曳山を収納する各山蔵は、様々な曳山行事が繰り広げられる歴史的なまちなみの中で、長浜ならではの風情や情緒を漂わせる重要な構成要素であることから、景観重要建造物に指定する。"},"geometry":{"type":"Point","coordinates":[136.26922,35.377491]}},{"type":"Feature","properties":{"都道府県":"滋賀","データ種別":"景観重要建造物","ID":"3525203003","都道府県コード":"25","市区町村":"長浜市","市区町村コード":"25203","指定番号":"第3号","指定年月日":"20110321","名称":"萬歳樓山蔵","住所":"長浜市朝日町1","説明":"長浜曳山祭の曳山を収納する各山蔵は、様々な曳山行事が繰り広げられる歴史的なまちなみの中で、長浜ならではの風情や情緒を漂わせる重要な構成要素であることから、景観重要建造物に指定する。"},"geometry":{"type":"Point","coordinates":[136.269311,35.37833]}},{"type":"Feature","properties":{"都道府県":"滋賀","データ種別":"景観重要建造物","ID":"3525203004","都道府県コード":"25","市区町村":"長浜市","市区町村コード":"25203","指定番号":"第4号","指定年月日":"20110321","名称":"猩々丸山蔵","住所":"長浜市朝日町519","説明":"長浜曳山祭の曳山を収納する各山蔵は、様々な曳山行事が繰り広げられる歴史的なまちなみの中で、長浜ならではの風情や情緒を漂わせる重要な構成要素であることから、景観重要建造物に指定する。"},"geometry":{"type":"Point","coordinates":[136.26697,35.378602]}},{"type":"Feature","properties":{"都道府県":"滋賀","データ種別":"景観重要建造物","ID":"3525203005","都道府県コード":"25","市区町村":"長浜市","市区町村コード":"25203","指定番号":"第5号","指定年月日":"20110321","名称":"春日山山蔵","住所":"長浜市北船町285-3","説明":"長浜曳山祭の曳山を収納する各山蔵は、様々な曳山行事が繰り広げられる歴史的なまちなみの中で、長浜ならではの風情や情緒を漂わせる重要な構成要素であることから、景観重要建造物に指定する。"},"geometry":{"type":"Point","coordinates":[136.266378,35.379296]}},{"type":"Feature","properties":{"都道府県":"滋賀","データ種別":"景観重要建造物","ID":"3525203006","都道府県コード":"25","市区町村":"長浜市","市区町村コード":"25203","指定番号":"第6号","指定年月日":"20110321","名称":"孔雀山山蔵","住所":"長浜市元浜町1125-11","説明":"長浜曳山祭の曳山を収納する各山蔵は、様々な曳山行事が繰り広げられる歴史的なまちなみの中で、長浜ならではの風情や情緒を漂わせる重要な構成要素であることから、景観重要建造物に指定する。"},"geometry":{"type":"Point","coordinates":[136.269279,35.379658]}},{"type":"Feature","properties":{"都道府県":"滋賀","データ種別":"景観重要建造物","ID":"3525203007","都道府県コード":"25","市区町村":"長浜市","市区町村コード":"25203","指定番号":"第7号","指定年月日":"20110321","名称":"壽山山蔵","住所":"長浜市元浜町723","説明":"長浜曳山祭の曳山を収納する各山蔵は、様々な曳山行事が繰り広げられる歴史的なまちなみの中で、長浜ならではの風情や情緒を漂わせる重要な構成要素であることから、景観重要建造物に指定する。"},"geometry":{"type":"Point","coordinates":[136.266527,35.380359]}},{"type":"Feature","properties":{"都道府県":"滋賀","データ種別":"景観重要建造物","ID":"3525203008","都道府県コード":"25","市区町村":"長浜市","市区町村コード":"25203","指定番号":"第8号","指定年月日":"20110321","名称":"高砂山山蔵","住所":"長浜市宮前町26","説明":"長浜曳山祭の曳山を収納する各山蔵は、様々な曳山行事が繰り広げられる歴史的なまちなみの中で、長浜ならではの風情や情緒を漂わせる重要な構成要素であることから、景観重要建造物に指定する。"},"geometry":{"type":"Point","coordinates":[136.273467,35.381715]}},{"type":"Feature","properties":{"都道府県":"滋賀","データ種別":"景観重要建造物","ID":"3525203009","都道府県コード":"25","市区町村":"長浜市","市区町村コード":"25203","指定番号":"第9号","指定年月日":"20110321","名称":"常磐山山蔵","住所":"長浜市南呉服町297-7","説明":"長浜曳山祭の曳山を収納する各山蔵は、様々な曳山行事が繰り広げられる歴史的なまちなみの中で、長浜ならではの風情や情緒を漂わせる重要な構成要素であることから、景観重要建造物に指定する。"},"geometry":{"type":"Point","coordinates":[136.265664,35.380891]}},{"type":"Feature","properties":{"都道府県":"滋賀","データ種別":"景観重要建造物","ID":"3525203010","都道府県コード":"25","市区町村":"長浜市","市区町村コード":"25203","指定番号":"第10号","指定年月日":"20110321","名称":"諫皷山山蔵","住所":"長浜市元浜町6-1","説明":"長浜曳山祭の曳山を収納する各山蔵は、様々な曳山行事が繰り広げられる歴史的なまちなみの中で、長浜ならではの風情や情緒を漂わせる重要な構成要素であることから、景観重要建造物に指定する。"},"geometry":{"type":"Point","coordinates":[136.270407,35.38236]}},{"type":"Feature","properties":{"都道府県":"滋賀","データ種別":"景観重要建造物","ID":"3525203011","都道府県コード":"25","市区町村":"長浜市","市区町村コード":"25203","指定番号":"第11号","指定年月日":"20110321","名称":"鳳凰山山蔵","住所":"長浜市元浜町607-3","説明":"長浜曳山祭の曳山を収納する各山蔵は、様々な曳山行事が繰り広げられる歴史的なまちなみの中で、長浜ならではの風情や情緒を漂わせる重要な構成要素であることから、景観重要建造物に指定する。"},"geometry":{"type":"Point","coordinates":[136.265855,35.381635]}},{"type":"Feature","properties":{"都道府県":"滋賀","データ種別":"景観重要建造物","ID":"3525203012","都道府県コード":"25","市区町村":"長浜市","市区町村コード":"25203","指定番号":"第12号","指定年月日":"20110321","名称":"青海山山蔵","住所":"長浜市元浜町252-1","説明":"長浜曳山祭の曳山を収納する各山蔵は、様々な曳山行事が繰り広げられる歴史的なまちなみの中で、長浜ならではの風情や情緒を漂わせる重要な構成要素であることから、景観重要建造物に指定する。"},"geometry":{"type":"Point","coordinates":[136.266964,35.384206]}},{"type":"Feature","properties":{"都道府県":"滋賀","データ種別":"景観重要建造物","ID":"3525203013","都道府県コード":"25","市区町村":"長浜市","市区町村コード":"25203","指定番号":"第13号","指定年月日":"20110321","名称":"翁山山蔵","住所":"長浜市元浜町1364","説明":"長浜曳山祭の曳山を収納する各山蔵は、様々な曳山行事が繰り広げられる歴史的なまちなみの中で、長浜ならではの風情や情緒を漂わせる重要な構成要素であることから、景観重要建造物に指定する。"},"geometry":{"type":"Point","coordinates":[136.267654,35.384341]}},{"type":"Feature","properties":{"都道府県":"滋賀","データ種別":"景観重要建造物","ID":"3525204001","都道府県コード":"25","市区町村":"近江八幡市","市区町村コード":"25204","指定番号":"1","指定年月日":"20061120","名称":"寶珠寺本堂","住所":"近江八幡市円山町170-2","説明":"宝暦4年7月(1754年）に建築された当建物は、木造瓦葺平家建で屋根の形状は宝形造りとしている。棟には方形棟露盤宝珠、隅には獅口隅鬼瓦を持ち、のびやかな優雅さを感じることが出来る。(以下詳細 別記 A35g-14_25_link.csv)"},"geometry":{"type":"Point","coordinates":[136.094857,35.162162]}},{"type":"Feature","properties":{"都道府県":"滋賀","データ種別":"景観重要建造物","ID":"3525204002","都道府県コード":"25","市区町村":"近江八幡市","市区町村コード":"25204","指定番号":"2","指定年月日":"20071213","名称":"寶池山西願寺 本堂","住所":"近江八幡市船木町1246","説明":"本堂は、県指定文化財の正福寺本堂と平面構成などで共通点が多く見られ、琵琶湖西岸の寺院から移築された仮本堂と伝えられる。(以下詳細 別記 A35g-14_25_link.csv)"},"geometry":{"type":"Point","coordinates":[136.076389,35.140365]}},{"type":"Feature","properties":{"都道府県":"滋賀","データ種別":"景観重要建造物","ID":"3525204003","都道府県コード":"25","市区町村":"近江八幡市","市区町村コード":"25204","指定番号":"3","指定年月日":"20120424","名称":"清見寺本堂","住所":"近江八幡市円山町177","説明":"清見寺本堂は、重要文化財的景観第1号｢近江八幡の水郷」の一部を構成する里山である円山の南山麓に位置し、円山神社へ続く参道の石段の横に建てられている。建物は木造一重、入母屋造芽葺(材料;ヨシ)で、正面は桟瓦葺である。(以下詳細 別記 A35g-14_25_link.csv)"},"geometry":{"type":"Point","coordinates":[136.094227,35.162145]}},{"type":"Feature","properties":{"都道府県":"大阪","データ種別":"景観重要建造物","ID":"3527220002","都道府県コード":"27","市区町村":"箕面市","市区町村コード":"27220","指定番号":"第2号","指定年月日":"20130606","名称":"高橋家住宅","住所":"箕面市箕面1-2-25","説明":"イギリス風の急傾斜の屋根や出窓等を残し、落ち着きのある外観は、明治以降の生活様式の変化に伴う建築様式の洋風化の影響が顕著に表れている。"},"geometry":{"type":"Point","coordinates":[135.467042,34.834497]}},{"type":"Feature","properties":{"都道府県":"兵庫","データ種別":"景観重要建造物","ID":"3528207001","都道府県コード":"28","市区町村":"伊丹市","市区町村コード":"28207","指定番号":"指定第1号","指定年月日":"20071101","名称":"白雪ブルワリービレッジ長寿蔵","住所":"伊丹市中央3-412-1・3","説明":"江戸時代からの伝統的酒蔵で、漆喰と焼き板の壁、本瓦葺きの三連棟の特徴を有し、再現された南側漆喰塀とともに、当時の伊丹郷町の景観を今に伝えるものである。"},"geometry":{"type":"Point","coordinates":[135.41719,34.781111]}},{"type":"Feature","properties":{"都道府県":"兵庫","データ種別":"景観重要建造物","ID":"3528207002","都道府県コード":"28","市区町村":"伊丹市","市区町村コード":"28207","指定番号":"指定第2号","指定年月日":"20071101","名称":"東リ旧本館事務所","住所":"伊丹市東有岡5-125","説明":"ハーフティンバースタイル･下見板張りの外壁や、アールデコ風の意匠の玄関庇などにより、大正期の面影を色濃く残す洋風建築である。"},"geometry":{"type":"Point","coordinates":[135.423047,34.771098]}},{"type":"Feature","properties":{"都道府県":"和歌山","データ種別":"景観重要建造物","ID":"3530344001","都道府県コード":"30","市区町村":"高野町","市区町村コード":"30344","指定番号":"1号","指定年月日":"20090316","名称":"虎屋薬局","住所":"高野町高野山768","説明":"上部正面の両側には松皮菱の漆喰模様をつけられた「うだつ」が造られ、正面性を生み出している。東側面は金剛三味院への参道につながる小道が走っており、「厨子2階」の屋根はその勾配のまま吹きおろされて1階の屋根を構成している。(以下詳細 別記 A35g-14_30_link.csv)"},"geometry":{"type":"Point","coordinates":[135.587313,34.212753]}},{"type":"Feature","properties":{"都道府県":"滋賀","データ種別":"景観重要樹木","ID":"3525202001","都道府県コード":"25","市区町村":"彦根市","市区町村コード":"25202","指定番号":"第2008-0001号","指定年月日":"20080820","名称":"松(クロマツ・アカマツ)","住所":"彦根市金亀町","説明":"二代当主直孝の時代に植えられ、｢いろは｣の文字数と同じ47本の松があったことが名前の由来と言われています。現在は、植え替えられた松もありますが、300年以上を超える松を含め33本が中堀沿いに整然と並んでいます。(以下詳細 別記 A35h-14_25_link.csv)"},"geometry":{"type":"Point","coordinates":[136.256232,35.274506]}},{"type":"Feature","properties":{"都道府県":"滋賀","データ種別":"景観重要樹木","ID":"3525202002","都道府県コード":"25","市区町村":"彦根市","市区町村コード":"25202","指定番号":"第2008-0002号","指定年月日":"20080820","名称":"松(クロマツ・アカマツ)","住所":"彦根市金亀町","説明":"二代当主直孝の時代に植えられ、｢いろは｣の文字数と同じ47本の松があったことが名前の由来と言われています。現在は、植え替えられた松もありますが、300年以上を超える松を含め33本が中堀沿いに整然と並んでいます。(以下詳細 別記 A35h-14_25_link.csv)"},"geometry":{"type":"Point","coordinates":[136.256232,35.274506]}},{"type":"Feature","properties":{"都道府県":"滋賀","データ種別":"景観重要樹木","ID":"3525202003","都道府県コード":"25","市区町村":"彦根市","市区町村コード":"25202","指定番号":"第2008-0003号","指定年月日":"20080820","名称":"松(クロマツ・アカマツ)","住所":"彦根市金亀町","説明":"二代当主直孝の時代に植えられ、｢いろは｣の文字数と同じ47本の松があったことが名前の由来と言われています。現在は、植え替えられた松もありますが、300年以上を超える松を含め33本が中堀沿いに整然と並んでいます。(以下詳細 別記 A35h-14_25_link.csv)"},"geometry":{"type":"Point","coordinates":[136.256232,35.274506]}},{"type":"Feature","properties":{"都道府県":"滋賀","データ種別":"景観重要樹木","ID":"3525202004","都道府県コード":"25","市区町村":"彦根市","市区町村コード":"25202","指定番号":"第2008-0004号","指定年月日":"20080820","名称":"松(クロマツ・アカマツ)","住所":"彦根市金亀町","説明":"二代当主直孝の時代に植えられ、｢いろは｣の文字数と同じ47本の松があったことが名前の由来と言われています。現在は、植え替えられた松もありますが、300年以上を超える松を含め33本が中堀沿いに整然と並んでいます。(以下詳細 別記 A35h-14_25_link.csv)"},"geometry":{"type":"Point","coordinates":[136.256232,35.274506]}},{"type":"Feature","properties":{"都道府県":"滋賀","データ種別":"景観重要樹木","ID":"3525202005","都道府県コード":"25","市区町村":"彦根市","市区町村コード":"25202","指定番号":"第2008-0005号","指定年月日":"20080820","名称":"松(クロマツ・アカマツ)","住所":"彦根市金亀町","説明":"二代当主直孝の時代に植えられ、｢いろは｣の文字数と同じ47本の松があったことが名前の由来と言われています。現在は、植え替えられた松もありますが、300年以上を超える松を含め33本が中堀沿いに整然と並んでいます。(以下詳細 別記 A35h-14_25_link.csv)"},"geometry":{"type":"Point","coordinates":[136.256232,35.274506]}},{"type":"Feature","properties":{"都道府県":"滋賀","データ種別":"景観重要樹木","ID":"3525202006","都道府県コード":"25","市区町村":"彦根市","市区町村コード":"25202","指定番号":"第2008-0006号","指定年月日":"20080820","名称":"松(クロマツ・アカマツ)","住所":"彦根市金亀町","説明":"二代当主直孝の時代に植えられ、｢いろは｣の文字数と同じ47本の松があったことが名前の由来と言われています。現在は、植え替えられた松もありますが、300年以上を超える松を含め33本が中堀沿いに整然と並んでいます。(以下詳細 別記 A35h-14_25_link.csv)"},"geometry":{"type":"Point","coordinates":[136.256232,35.274506]}},{"type":"Feature","properties":{"都道府県":"滋賀","データ種別":"景観重要樹木","ID":"3525202007","都道府県コード":"25","市区町村":"彦根市","市区町村コード":"25202","指定番号":"第2008-0007号","指定年月日":"20080820","名称":"松(クロマツ・アカマツ)","住所":"彦根市金亀町","説明":"二代当主直孝の時代に植えられ、｢いろは｣の文字数と同じ47本の松があったことが名前の由来と言われています。現在は、植え替えられた松もありますが、300年以上を超える松を含め33本が中堀沿いに整然と並んでいます。(以下詳細 別記 A35h-14_25_link.csv)"},"geometry":{"type":"Point","coordinates":[136.256232,35.274506]}},{"type":"Feature","properties":{"都道府県":"滋賀","データ種別":"景観重要樹木","ID":"3525202008","都道府県コード":"25","市区町村":"彦根市","市区町村コード":"25202","指定番号":"第2008-0008号","指定年月日":"20080820","名称":"松(クロマツ・アカマツ)","住所":"彦根市金亀町","説明":"二代当主直孝の時代に植えられ、｢いろは｣の文字数と同じ47本の松があったことが名前の由来と言われています。現在は、植え替えられた松もありますが、300年以上を超える松を含め33本が中堀沿いに整然と並んでいます。(以下詳細 別記 A35h-14_25_link.csv)"},"geometry":{"type":"Point","coordinates":[136.256232,35.274506]}},{"type":"Feature","properties":{"都道府県":"滋賀","データ種別":"景観重要樹木","ID":"3525202009","都道府県コード":"25","市区町村":"彦根市","市区町村コード":"25202","指定番号":"第2008-0009号","指定年月日":"20080820","名称":"松(クロマツ・アカマツ)","住所":"彦根市金亀町","説明":"二代当主直孝の時代に植えられ、｢いろは｣の文字数と同じ47本の松があったことが名前の由来と言われています。現在は、植え替えられた松もありますが、300年以上を超える松を含め33本が中堀沿いに整然と並んでいます。(以下詳細 別記 A35h-14_25_link.csv)"},"geometry":{"type":"Point","coordinates":[136.256232,35.274506]}},{"type":"Feature","properties":{"都道府県":"滋賀","データ種別":"景観重要樹木","ID":"3525202010","都道府県コード":"25","市区町村":"彦根市","市区町村コード":"25202","指定番号":"第2008-0010号","指定年月日":"20080820","名称":"松(クロマツ・アカマツ)","住所":"彦根市金亀町","説明":"二代当主直孝の時代に植えられ、｢いろは｣の文字数と同じ47本の松があったことが名前の由来と言われています。現在は、植え替えられた松もありますが、300年以上を超える松を含め33本が中堀沿いに整然と並んでいます。(以下詳細 別記 A35h-14_25_link.csv)"},"geometry":{"type":"Point","coordinates":[136.256232,35.274506]}},{"type":"Feature","properties":{"都道府県":"滋賀","データ種別":"景観重要樹木","ID":"3525202011","都道府県コード":"25","市区町村":"彦根市","市区町村コード":"25202","指定番号":"第2008-0011号","指定年月日":"20080820","名称":"松(クロマツ・アカマツ)","住所":"彦根市金亀町","説明":"二代当主直孝の時代に植えられ、｢いろは｣の文字数と同じ47本の松があったことが名前の由来と言われています。現在は、植え替えられた松もありますが、300年以上を超える松を含め33本が中堀沿いに整然と並んでいます。(以下詳細 別記 A35h-14_25_link.csv)"},"geometry":{"type":"Point","coordinates":[136.256232,35.274506]}},{"type":"Feature","properties":{"都道府県":"滋賀","データ種別":"景観重要樹木","ID":"3525202012","都道府県コード":"25","市区町村":"彦根市","市区町村コード":"25202","指定番号":"第2008-0012号","指定年月日":"20080820","名称":"松(クロマツ・アカマツ)","住所":"彦根市金亀町","説明":"二代当主直孝の時代に植えられ、｢いろは｣の文字数と同じ47本の松があったことが名前の由来と言われています。現在は、植え替えられた松もありますが、300年以上を超える松を含め33本が中堀沿いに整然と並んでいます。(以下詳細 別記 A35h-14_25_link.csv)"},"geometry":{"type":"Point","coordinates":[136.256232,35.274506]}},{"type":"Feature","properties":{"都道府県":"滋賀","データ種別":"景観重要樹木","ID":"3525202013","都道府県コード":"25","市区町村":"彦根市","市区町村コード":"25202","指定番号":"第2008-0013号","指定年月日":"20080820","名称":"松(クロマツ・アカマツ)","住所":"彦根市金亀町","説明":"二代当主直孝の時代に植えられ、｢いろは｣の文字数と同じ47本の松があったことが名前の由来と言われています。現在は、植え替えられた松もありますが、300年以上を超える松を含め33本が中堀沿いに整然と並んでいます。(以下詳細 別記 A35h-14_25_link.csv)"},"geometry":{"type":"Point","coordinates":[136.256232,35.274506]}},{"type":"Feature","properties":{"都道府県":"滋賀","データ種別":"景観重要樹木","ID":"3525202014","都道府県コード":"25","市区町村":"彦根市","市区町村コード":"25202","指定番号":"第2008-0014号","指定年月日":"20080820","名称":"松(クロマツ・アカマツ)","住所":"彦根市金亀町","説明":"二代当主直孝の時代に植えられ、｢いろは｣の文字数と同じ47本の松があったことが名前の由来と言われています。現在は、植え替えられた松もありますが、300年以上を超える松を含め33本が中堀沿いに整然と並んでいます。(以下詳細 別記 A35h-14_25_link.csv)"},"geometry":{"type":"Point","coordinates":[136.256232,35.274506]}},{"type":"Feature","properties":{"都道府県":"滋賀","データ種別":"景観重要樹木","ID":"3525202015","都道府県コード":"25","市区町村":"彦根市","市区町村コード":"25202","指定番号":"第2008-0015号","指定年月日":"20080820","名称":"松(クロマツ・アカマツ)","住所":"彦根市金亀町","説明":"二代当主直孝の時代に植えられ、｢いろは｣の文字数と同じ47本の松があったことが名前の由来と言われています。現在は、植え替えられた松もありますが、300年以上を超える松を含め33本が中堀沿いに整然と並んでいます。(以下詳細 別記 A35h-14_25_link.csv)"},"geometry":{"type":"Point","coordinates":[136.256232,35.274506]}},{"type":"Feature","properties":{"都道府県":"滋賀","データ種別":"景観重要樹木","ID":"3525202016","都道府県コード":"25","市区町村":"彦根市","市区町村コード":"25202","指定番号":"第2008-0016号","指定年月日":"20080820","名称":"松(クロマツ・アカマツ)","住所":"彦根市金亀町","説明":"二代当主直孝の時代に植えられ、｢いろは｣の文字数と同じ47本の松があったことが名前の由来と言われています。現在は、植え替えられた松もありますが、300年以上を超える松を含め33本が中堀沿いに整然と並んでいます。(以下詳細 別記 A35h-14_25_link.csv)"},"geometry":{"type":"Point","coordinates":[136.256232,35.274506]}},{"type":"Feature","properties":{"都道府県":"滋賀","データ種別":"景観重要樹木","ID":"3525202017","都道府県コード":"25","市区町村":"彦根市","市区町村コード":"25202","指定番号":"第2008-0017号","指定年月日":"20080820","名称":"松(クロマツ・アカマツ)","住所":"彦根市金亀町","説明":"二代当主直孝の時代に植えられ、｢いろは｣の文字数と同じ47本の松があったことが名前の由来と言われています。現在は、植え替えられた松もありますが、300年以上を超える松を含め33本が中堀沿いに整然と並んでいます。(以下詳細 別記 A35h-14_25_link.csv)"},"geometry":{"type":"Point","coordinates":[136.256232,35.274506]}},{"type":"Feature","properties":{"都道府県":"滋賀","データ種別":"景観重要樹木","ID":"3525202018","都道府県コード":"25","市区町村":"彦根市","市区町村コード":"25202","指定番号":"第2008-0018号","指定年月日":"20080820","名称":"松(クロマツ・アカマツ)","住所":"彦根市金亀町","説明":"二代当主直孝の時代に植えられ、｢いろは｣の文字数と同じ47本の松があったことが名前の由来と言われています。現在は、植え替えられた松もありますが、300年以上を超える松を含め33本が中堀沿いに整然と並んでいます。(以下詳細 別記 A35h-14_25_link.csv)"},"geometry":{"type":"Point","coordinates":[136.256232,35.274506]}},{"type":"Feature","properties":{"都道府県":"滋賀","データ種別":"景観重要樹木","ID":"3525202019","都道府県コード":"25","市区町村":"彦根市","市区町村コード":"25202","指定番号":"第2008-0019号","指定年月日":"20080820","名称":"松(クロマツ・アカマツ)","住所":"彦根市金亀町","説明":"二代当主直孝の時代に植えられ、｢いろは｣の文字数と同じ47本の松があったことが名前の由来と言われています。現在は、植え替えられた松もありますが、300年以上を超える松を含め33本が中堀沿いに整然と並んでいます。(以下詳細 別記 A35h-14_25_link.csv)"},"geometry":{"type":"Point","coordinates":[136.256232,35.274506]}},{"type":"Feature","properties":{"都道府県":"滋賀","データ種別":"景観重要樹木","ID":"3525202020","都道府県コード":"25","市区町村":"彦根市","市区町村コード":"25202","指定番号":"第2008-0020号","指定年月日":"20080820","名称":"松(クロマツ・アカマツ)","住所":"彦根市金亀町","説明":"二代当主直孝の時代に植えられ、｢いろは｣の文字数と同じ47本の松があったことが名前の由来と言われています。現在は、植え替えられた松もありますが、300年以上を超える松を含め33本が中堀沿いに整然と並んでいます。(以下詳細 別記 A35h-14_25_link.csv)"},"geometry":{"type":"Point","coordinates":[136.256232,35.274506]}},{"type":"Feature","properties":{"都道府県":"滋賀","データ種別":"景観重要樹木","ID":"3525202021","都道府県コード":"25","市区町村":"彦根市","市区町村コード":"25202","指定番号":"第2008-0021号","指定年月日":"20080820","名称":"松(クロマツ・アカマツ)","住所":"彦根市金亀町","説明":"二代当主直孝の時代に植えられ、｢いろは｣の文字数と同じ47本の松があったことが名前の由来と言われています。現在は、植え替えられた松もありますが、300年以上を超える松を含め33本が中堀沿いに整然と並んでいます。(以下詳細 別記 A35h-14_25_link.csv)"},"geometry":{"type":"Point","coordinates":[136.256232,35.274506]}},{"type":"Feature","properties":{"都道府県":"滋賀","データ種別":"景観重要樹木","ID":"3525202022","都道府県コード":"25","市区町村":"彦根市","市区町村コード":"25202","指定番号":"第2008-0022号","指定年月日":"20080820","名称":"松(クロマツ・アカマツ)","住所":"彦根市金亀町","説明":"二代当主直孝の時代に植えられ、｢いろは｣の文字数と同じ47本の松があったことが名前の由来と言われています。現在は、植え替えられた松もありますが、300年以上を超える松を含め33本が中堀沿いに整然と並んでいます。(以下詳細 別記 A35h-14_25_link.csv)"},"geometry":{"type":"Point","coordinates":[136.256232,35.274506]}},{"type":"Feature","properties":{"都道府県":"滋賀","データ種別":"景観重要樹木","ID":"3525202023","都道府県コード":"25","市区町村":"彦根市","市区町村コード":"25202","指定番号":"第2008-0023号","指定年月日":"20080820","名称":"松(クロマツ・アカマツ)","住所":"彦根市金亀町","説明":"二代当主直孝の時代に植えられ、｢いろは｣の文字数と同じ47本の松があったことが名前の由来と言われています。現在は、植え替えられた松もありますが、300年以上を超える松を含め33本が中堀沿いに整然と並んでいます。(以下詳細 別記 A35h-14_25_link.csv)"},"geometry":{"type":"Point","coordinates":[136.256232,35.274506]}},{"type":"Feature","properties":{"都道府県":"滋賀","データ種別":"景観重要樹木","ID":"3525202024","都道府県コード":"25","市区町村":"彦根市","市区町村コード":"25202","指定番号":"第2008-0024号","指定年月日":"20080820","名称":"松(クロマツ・アカマツ)","住所":"彦根市金亀町","説明":"二代当主直孝の時代に植えられ、｢いろは｣の文字数と同じ47本の松があったことが名前の由来と言われています。現在は、植え替えられた松もありますが、300年以上を超える松を含め33本が中堀沿いに整然と並んでいます。(以下詳細 別記 A35h-14_25_link.csv)"},"geometry":{"type":"Point","coordinates":[136.256232,35.274506]}},{"type":"Feature","properties":{"都道府県":"滋賀","データ種別":"景観重要樹木","ID":"3525202025","都道府県コード":"25","市区町村":"彦根市","市区町村コード":"25202","指定番号":"第2008-0025号","指定年月日":"20080820","名称":"松(クロマツ・アカマツ)","住所":"彦根市金亀町","説明":"二代当主直孝の時代に植えられ、｢いろは｣の文字数と同じ47本の松があったことが名前の由来と言われています。現在は、植え替えられた松もありますが、300年以上を超える松を含め33本が中堀沿いに整然と並んでいます。(以下詳細 別記 A35h-14_25_link.csv)"},"geometry":{"type":"Point","coordinates":[136.256232,35.274506]}},{"type":"Feature","properties":{"都道府県":"滋賀","データ種別":"景観重要樹木","ID":"3525202026","都道府県コード":"25","市区町村":"彦根市","市区町村コード":"25202","指定番号":"第2008-0026号","指定年月日":"20080820","名称":"松(クロマツ・アカマツ)","住所":"彦根市金亀町","説明":"二代当主直孝の時代に植えられ、｢いろは｣の文字数と同じ47本の松があったことが名前の由来と言われています。現在は、植え替えられた松もありますが、300年以上を超える松を含め33本が中堀沿いに整然と並んでいます。(以下詳細 別記 A35h-14_25_link.csv)"},"geometry":{"type":"Point","coordinates":[136.256232,35.274506]}},{"type":"Feature","properties":{"都道府県":"滋賀","データ種別":"景観重要樹木","ID":"3525202027","都道府県コード":"25","市区町村":"彦根市","市区町村コード":"25202","指定番号":"第2008-0027号","指定年月日":"20080820","名称":"松(クロマツ・アカマツ)","住所":"彦根市金亀町","説明":"二代当主直孝の時代に植えられ、｢いろは｣の文字数と同じ47本の松があったことが名前の由来と言われています。現在は、植え替えられた松もありますが、300年以上を超える松を含め33本が中堀沿いに整然と並んでいます。(以下詳細 別記 A35h-14_25_link.csv)"},"geometry":{"type":"Point","coordinates":[136.256232,35.274506]}},{"type":"Feature","properties":{"都道府県":"滋賀","データ種別":"景観重要樹木","ID":"3525202028","都道府県コード":"25","市区町村":"彦根市","市区町村コード":"25202","指定番号":"第2008-0028号","指定年月日":"20080820","名称":"松(クロマツ・アカマツ)","住所":"彦根市金亀町","説明":"二代当主直孝の時代に植えられ、｢いろは｣の文字数と同じ47本の松があったことが名前の由来と言われています。現在は、植え替えられた松もありますが、300年以上を超える松を含め33本が中堀沿いに整然と並んでいます。(以下詳細 別記 A35h-14_25_link.csv)"},"geometry":{"type":"Point","coordinates":[136.256232,35.274506]}},{"type":"Feature","properties":{"都道府県":"滋賀","データ種別":"景観重要樹木","ID":"3525202029","都道府県コード":"25","市区町村":"彦根市","市区町村コード":"25202","指定番号":"第2008-0029号","指定年月日":"20080820","名称":"松(クロマツ・アカマツ)","住所":"彦根市金亀町","説明":"二代当主直孝の時代に植えられ、｢いろは｣の文字数と同じ47本の松があったことが名前の由来と言われています。現在は、植え替えられた松もありますが、300年以上を超える松を含め33本が中堀沿いに整然と並んでいます。(以下詳細 別記 A35h-14_25_link.csv)"},"geometry":{"type":"Point","coordinates":[136.256232,35.274506]}},{"type":"Feature","properties":{"都道府県":"滋賀","データ種別":"景観重要樹木","ID":"3525202030","都道府県コード":"25","市区町村":"彦根市","市区町村コード":"25202","指定番号":"第2008-0030号","指定年月日":"20080820","名称":"松(クロマツ・アカマツ)","住所":"彦根市金亀町","説明":"二代当主直孝の時代に植えられ、｢いろは｣の文字数と同じ47本の松があったことが名前の由来と言われています。現在は、植え替えられた松もありますが、300年以上を超える松を含め33本が中堀沿いに整然と並んでいます。(以下詳細 別記 A35h-14_25_link.csv)"},"geometry":{"type":"Point","coordinates":[136.256232,35.274506]}},{"type":"Feature","properties":{"都道府県":"滋賀","データ種別":"景観重要樹木","ID":"3525202031","都道府県コード":"25","市区町村":"彦根市","市区町村コード":"25202","指定番号":"第2008-0031号","指定年月日":"20080820","名称":"松(クロマツ・アカマツ)","住所":"彦根市金亀町","説明":"二代当主直孝の時代に植えられ、｢いろは｣の文字数と同じ47本の松があったことが名前の由来と言われています。現在は、植え替えられた松もありますが、300年以上を超える松を含め33本が中堀沿いに整然と並んでいます。(以下詳細 別記 A35h-14_25_link.csv)"},"geometry":{"type":"Point","coordinates":[136.256232,35.274506]}},{"type":"Feature","properties":{"都道府県":"滋賀","データ種別":"景観重要樹木","ID":"3525202032","都道府県コード":"25","市区町村":"彦根市","市区町村コード":"25202","指定番号":"第2008-0032号","指定年月日":"20080820","名称":"松(クロマツ・アカマツ)","住所":"彦根市金亀町","説明":"二代当主直孝の時代に植えられ、｢いろは｣の文字数と同じ47本の松があったことが名前の由来と言われています。現在は、植え替えられた松もありますが、300年以上を超える松を含め33本が中堀沿いに整然と並んでいます。(以下詳細 別記 A35h-14_25_link.csv)"},"geometry":{"type":"Point","coordinates":[136.256232,35.274506]}},{"type":"Feature","properties":{"都道府県":"滋賀","データ種別":"景観重要樹木","ID":"3525202033","都道府県コード":"25","市区町村":"彦根市","市区町村コード":"25202","指定番号":"第2008-0033号","指定年月日":"20080820","名称":"松(クロマツ・アカマツ)","住所":"彦根市金亀町","説明":"二代当主直孝の時代に植えられ、｢いろは｣の文字数と同じ47本の松があったことが名前の由来と言われています。現在は、植え替えられた松もありますが、300年以上を超える松を含め33本が中堀沿いに整然と並んでいます。(以下詳細 別記 A35h-14_25_link.csv)"},"geometry":{"type":"Point","coordinates":[136.256232,35.274506]}},{"type":"Feature","properties":{"都道府県":"京都","データ種別":"景観重要樹木","ID":"3526209001","都道府県コード":"26","市区町村":"長岡京市","市区町村コード":"26209","指定番号":"1","指定年月日":"20100701","名称":"キリシマツツジ","住所":"長岡京市天神2-59","説明":"八条ヶ池中堤のキリシマツツジは、濃紅色の野生に近い品種で、高さ2.5m〜3mあり、大きく株別れし、約60mにわたり群生しており、その樹齢は150年ともいわれている。(以下詳細 別記 A35h-14_26_link.csv)"},"geometry":{"type":"Point","coordinates":[135.688654,34.923753]}},{"type":"Feature","properties":{"都道府県":"京都","データ種別":"景観重要樹木","ID":"3526209002","都道府県コード":"26","市区町村":"長岡京市","市区町村コード":"26209","指定番号":"2","指定年月日":"20100701","名称":"キリシマツツジ","住所":"長岡京市天神2-59","説明":"八条ヶ池中堤のキリシマツツジは、濃紅色の野生に近い品種で、高さ2.5m〜3mあり、大きく株別れし、約60mにわたり群生しており、その樹齢は150年ともいわれている。(以下詳細 別記 A35h-14_26_link.csv)"},"geometry":{"type":"Point","coordinates":[135.688632,34.923752]}},{"type":"Feature","properties":{"都道府県":"京都","データ種別":"景観重要樹木","ID":"3526209003","都道府県コード":"26","市区町村":"長岡京市","市区町村コード":"26209","指定番号":"3","指定年月日":"20100701","名称":"キリシマツツジ","住所":"長岡京市天神2-59","説明":"八条ヶ池中堤のキリシマツツジは、濃紅色の野生に近い品種で、高さ2.5m〜3mあり、大きく株別れし、約60mにわたり群生しており、その樹齢は150年ともいわれている。(以下詳細 別記 A35h-14_26_link.csv)"},"geometry":{"type":"Point","coordinates":[135.68861,34.923752]}},{"type":"Feature","properties":{"都道府県":"京都","データ種別":"景観重要樹木","ID":"3526209004","都道府県コード":"26","市区町村":"長岡京市","市区町村コード":"26209","指定番号":"4","指定年月日":"20100701","名称":"キリシマツツジ","住所":"長岡京市天神2-59","説明":"八条ヶ池中堤のキリシマツツジは、濃紅色の野生に近い品種で、高さ2.5m〜3mあり、大きく株別れし、約60mにわたり群生しており、その樹齢は150年ともいわれている。(以下詳細 別記 A35h-14_26_link.csv)"},"geometry":{"type":"Point","coordinates":[135.688597,34.923747]}},{"type":"Feature","properties":{"都道府県":"京都","データ種別":"景観重要樹木","ID":"3526209005","都道府県コード":"26","市区町村":"長岡京市","市区町村コード":"26209","指定番号":"5","指定年月日":"20100701","名称":"キリシマツツジ","住所":"長岡京市天神2-59","説明":"八条ヶ池中堤のキリシマツツジは、濃紅色の野生に近い品種で、高さ2.5m〜3mあり、大きく株別れし、約60mにわたり群生しており、その樹齢は150年ともいわれている。(以下詳細 別記 A35h-14_26_link.csv)"},"geometry":{"type":"Point","coordinates":[135.688589,34.923751]}},{"type":"Feature","properties":{"都道府県":"京都","データ種別":"景観重要樹木","ID":"3526209006","都道府県コード":"26","市区町村":"長岡京市","市区町村コード":"26209","指定番号":"6","指定年月日":"20100701","名称":"キリシマツツジ","住所":"長岡京市天神2-59","説明":"八条ヶ池中堤のキリシマツツジは、濃紅色の野生に近い品種で、高さ2.5m〜3mあり、大きく株別れし、約60mにわたり群生しており、その樹齢は150年ともいわれている。(以下詳細 別記 A35h-14_26_link.csv)"},"geometry":{"type":"Point","coordinates":[135.688581,34.923756]}},{"type":"Feature","properties":{"都道府県":"京都","データ種別":"景観重要樹木","ID":"3526209007","都道府県コード":"26","市区町村":"長岡京市","市区町村コード":"26209","指定番号":"7","指定年月日":"20100701","名称":"キリシマツツジ","住所":"長岡京市天神2-59","説明":"八条ヶ池中堤のキリシマツツジは、濃紅色の野生に近い品種で、高さ2.5m〜3mあり、大きく株別れし、約60mにわたり群生しており、その樹齢は150年ともいわれている。(以下詳細 別記 A35h-14_26_link.csv)"},"geometry":{"type":"Point","coordinates":[135.688573,34.923756]}},{"type":"Feature","properties":{"都道府県":"京都","データ種別":"景観重要樹木","ID":"3526209008","都道府県コード":"26","市区町村":"長岡京市","市区町村コード":"26209","指定番号":"8","指定年月日":"20100701","名称":"キリシマツツジ","住所":"長岡京市天神2-59","説明":"八条ヶ池中堤のキリシマツツジは、濃紅色の野生に近い品種で、高さ2.5m〜3mあり、大きく株別れし、約60mにわたり群生しており、その樹齢は150年ともいわれている。(以下詳細 別記 A35h-14_26_link.csv)"},"geometry":{"type":"Point","coordinates":[135.688564,34.923758]}},{"type":"Feature","properties":{"都道府県":"京都","データ種別":"景観重要樹木","ID":"3526209009","都道府県コード":"26","市区町村":"長岡京市","市区町村コード":"26209","指定番号":"9","指定年月日":"20100701","名称":"キリシマツツジ","住所":"長岡京市天神2-59","説明":"八条ヶ池中堤のキリシマツツジは、濃紅色の野生に近い品種で、高さ2.5m〜3mあり、大きく株別れし、約60mにわたり群生しており、その樹齢は150年ともいわれている。(以下詳細 別記 A35h-14_26_link.csv)"},"geometry":{"type":"Point","coordinates":[135.688555,34.923749]}},{"type":"Feature","properties":{"都道府県":"京都","データ種別":"景観重要樹木","ID":"3526209010","都道府県コード":"26","市区町村":"長岡京市","市区町村コード":"26209","指定番号":"10","指定年月日":"20100701","名称":"キリシマツツジ","住所":"長岡京市天神2-59","説明":"八条ヶ池中堤のキリシマツツジは、濃紅色の野生に近い品種で、高さ2.5m〜3mあり、大きく株別れし、約60mにわたり群生しており、その樹齢は150年ともいわれている。(以下詳細 別記 A35h-14_26_link.csv)"},"geometry":{"type":"Point","coordinates":[135.68854,34.923756]}},{"type":"Feature","properties":{"都道府県":"京都","データ種別":"景観重要樹木","ID":"3526209011","都道府県コード":"26","市区町村":"長岡京市","市区町村コード":"26209","指定番号":"11","指定年月日":"20100701","名称":"キリシマツツジ","住所":"長岡京市天神2-59","説明":"八条ヶ池中堤のキリシマツツジは、濃紅色の野生に近い品種で、高さ2.5m〜3mあり、大きく株別れし、約60mにわたり群生しており、その樹齢は150年ともいわれている。(以下詳細 別記 A35h-14_26_link.csv)"},"geometry":{"type":"Point","coordinates":[135.688529,34.923751]}},{"type":"Feature","properties":{"都道府県":"京都","データ種別":"景観重要樹木","ID":"3526209012","都道府県コード":"26","市区町村":"長岡京市","市区町村コード":"26209","指定番号":"12","指定年月日":"20100701","名称":"キリシマツツジ","住所":"長岡京市天神2-59","説明":"八条ヶ池中堤のキリシマツツジは、濃紅色の野生に近い品種で、高さ2.5m〜3mあり、大きく株別れし、約60mにわたり群生しており、その樹齢は150年ともいわれている。(以下詳細 別記 A35h-14_26_link.csv)"},"geometry":{"type":"Point","coordinates":[135.688517,34.923748]}},{"type":"Feature","properties":{"都道府県":"京都","データ種別":"景観重要樹木","ID":"3526209013","都道府県コード":"26","市区町村":"長岡京市","市区町村コード":"26209","指定番号":"13","指定年月日":"20100701","名称":"キリシマツツジ","住所":"長岡京市天神2-59","説明":"八条ヶ池中堤のキリシマツツジは、濃紅色の野生に近い品種で、高さ2.5m〜3mあり、大きく株別れし、約60mにわたり群生しており、その樹齢は150年ともいわれている。(以下詳細 別記 A35h-14_26_link.csv)"},"geometry":{"type":"Point","coordinates":[135.688503,34.923754]}},{"type":"Feature","properties":{"都道府県":"京都","データ種別":"景観重要樹木","ID":"3526209014","都道府県コード":"26","市区町村":"長岡京市","市区町村コード":"26209","指定番号":"14","指定年月日":"20100701","名称":"キリシマツツジ","住所":"長岡京市天神2-59","説明":"八条ヶ池中堤のキリシマツツジは、濃紅色の野生に近い品種で、高さ2.5m〜3mあり、大きく株別れし、約60mにわたり群生しており、その樹齢は150年ともいわれている。(以下詳細 別記 A35h-14_26_link.csv)"},"geometry":{"type":"Point","coordinates":[135.688488,34.92375]}},{"type":"Feature","properties":{"都道府県":"京都","データ種別":"景観重要樹木","ID":"3526209015","都道府県コード":"26","市区町村":"長岡京市","市区町村コード":"26209","指定番号":"15","指定年月日":"20100701","名称":"キリシマツツジ","住所":"長岡京市天神2-59","説明":"八条ヶ池中堤のキリシマツツジは、濃紅色の野生に近い品種で、高さ2.5m〜3mあり、大きく株別れし、約60mにわたり群生しており、その樹齢は150年ともいわれている。(以下詳細 別記 A35h-14_26_link.csv)"},"geometry":{"type":"Point","coordinates":[135.688468,34.923747]}},{"type":"Feature","properties":{"都道府県":"京都","データ種別":"景観重要樹木","ID":"3526209016","都道府県コード":"26","市区町村":"長岡京市","市区町村コード":"26209","指定番号":"16","指定年月日":"20100701","名称":"キリシマツツジ","住所":"長岡京市天神2-59","説明":"八条ヶ池中堤のキリシマツツジは、濃紅色の野生に近い品種で、高さ2.5m〜3mあり、大きく株別れし、約60mにわたり群生しており、その樹齢は150年ともいわれている。(以下詳細 別記 A35h-14_26_link.csv)"},"geometry":{"type":"Point","coordinates":[135.688451,34.923753]}},{"type":"Feature","properties":{"都道府県":"京都","データ種別":"景観重要樹木","ID":"3526209017","都道府県コード":"26","市区町村":"長岡京市","市区町村コード":"26209","指定番号":"17","指定年月日":"20100701","名称":"キリシマツツジ","住所":"長岡京市天神2-59","説明":"八条ヶ池中堤のキリシマツツジは、濃紅色の野生に近い品種で、高さ2.5m〜3mあり、大きく株別れし、約60mにわたり群生しており、その樹齢は150年ともいわれている。(以下詳細 別記 A35h-14_26_link.csv)"},"geometry":{"type":"Point","coordinates":[135.688438,34.923743]}},{"type":"Feature","properties":{"都道府県":"京都","データ種別":"景観重要樹木","ID":"3526209018","都道府県コード":"26","市区町村":"長岡京市","市区町村コード":"26209","指定番号":"18","指定年月日":"20100701","名称":"キリシマツツジ","住所":"長岡京市天神2-59","説明":"八条ヶ池中堤のキリシマツツジは、濃紅色の野生に近い品種で、高さ2.5m〜3mあり、大きく株別れし、約60mにわたり群生しており、その樹齢は150年ともいわれている。(以下詳細 別記 A35h-14_26_link.csv)"},"geometry":{"type":"Point","coordinates":[135.688424,34.923743]}},{"type":"Feature","properties":{"都道府県":"京都","データ種別":"景観重要樹木","ID":"3526209019","都道府県コード":"26","市区町村":"長岡京市","市区町村コード":"26209","指定番号":"19","指定年月日":"20100701","名称":"キリシマツツジ","住所":"長岡京市天神2-59","説明":"八条ヶ池中堤のキリシマツツジは、濃紅色の野生に近い品種で、高さ2.5m〜3mあり、大きく株別れし、約60mにわたり群生しており、その樹齢は150年ともいわれている。(以下詳細 別記 A35h-14_26_link.csv)"},"geometry":{"type":"Point","coordinates":[135.688409,34.923741]}},{"type":"Feature","properties":{"都道府県":"京都","データ種別":"景観重要樹木","ID":"3526209020","都道府県コード":"26","市区町村":"長岡京市","市区町村コード":"26209","指定番号":"20","指定年月日":"20100701","名称":"キリシマツツジ","住所":"長岡京市天神2-59","説明":"八条ヶ池中堤のキリシマツツジは、濃紅色の野生に近い品種で、高さ2.5m〜3mあり、大きく株別れし、約60mにわたり群生しており、その樹齢は150年ともいわれている。(以下詳細 別記 A35h-14_26_link.csv)"},"geometry":{"type":"Point","coordinates":[135.688395,34.923751]}},{"type":"Feature","properties":{"都道府県":"京都","データ種別":"景観重要樹木","ID":"3526209021","都道府県コード":"26","市区町村":"長岡京市","市区町村コード":"26209","指定番号":"21","指定年月日":"20100701","名称":"キリシマツツジ","住所":"長岡京市天神2-59","説明":"八条ヶ池中堤のキリシマツツジは、濃紅色の野生に近い品種で、高さ2.5m〜3mあり、大きく株別れし、約60mにわたり群生しており、その樹齢は150年ともいわれている。(以下詳細 別記 A35h-14_26_link.csv)"},"geometry":{"type":"Point","coordinates":[135.688378,34.923739]}},{"type":"Feature","properties":{"都道府県":"京都","データ種別":"景観重要樹木","ID":"3526209022","都道府県コード":"26","市区町村":"長岡京市","市区町村コード":"26209","指定番号":"22","指定年月日":"20100701","名称":"キリシマツツジ","住所":"長岡京市天神2-59","説明":"八条ヶ池中堤のキリシマツツジは、濃紅色の野生に近い品種で、高さ2.5m〜3mあり、大きく株別れし、約60mにわたり群生しており、その樹齢は150年ともいわれている。(以下詳細 別記 A35h-14_26_link.csv)"},"geometry":{"type":"Point","coordinates":[135.688362,34.923752]}},{"type":"Feature","properties":{"都道府県":"京都","データ種別":"景観重要樹木","ID":"3526209023","都道府県コード":"26","市区町村":"長岡京市","市区町村コード":"26209","指定番号":"23","指定年月日":"20100701","名称":"キリシマツツジ","住所":"長岡京市天神2-59","説明":"八条ヶ池中堤のキリシマツツジは、濃紅色の野生に近い品種で、高さ2.5m〜3mあり、大きく株別れし、約60mにわたり群生しており、その樹齢は150年ともいわれている。(以下詳細 別記 A35h-14_26_link.csv)"},"geometry":{"type":"Point","coordinates":[135.688349,34.923741]}},{"type":"Feature","properties":{"都道府県":"京都","データ種別":"景観重要樹木","ID":"3526209024","都道府県コード":"26","市区町村":"長岡京市","市区町村コード":"26209","指定番号":"24","指定年月日":"20100701","名称":"キリシマツツジ","住所":"長岡京市天神2-59","説明":"八条ヶ池中堤のキリシマツツジは、濃紅色の野生に近い品種で、高さ2.5m〜3mあり、大きく株別れし、約60mにわたり群生しており、その樹齢は150年ともいわれている。(以下詳細 別記 A35h-14_26_link.csv)"},"geometry":{"type":"Point","coordinates":[135.68833,34.923749]}},{"type":"Feature","properties":{"都道府県":"京都","データ種別":"景観重要樹木","ID":"3526209025","都道府県コード":"26","市区町村":"長岡京市","市区町村コード":"26209","指定番号":"25","指定年月日":"20100701","名称":"キリシマツツジ","住所":"長岡京市天神2-59","説明":"八条ヶ池中堤のキリシマツツジは、濃紅色の野生に近い品種で、高さ2.5m〜3mあり、大きく株別れし、約60mにわたり群生しており、その樹齢は150年ともいわれている。(以下詳細 別記 A35h-14_26_link.csv)"},"geometry":{"type":"Point","coordinates":[135.688315,34.923743]}},{"type":"Feature","properties":{"都道府県":"京都","データ種別":"景観重要樹木","ID":"3526209026","都道府県コード":"26","市区町村":"長岡京市","市区町村コード":"26209","指定番号":"26","指定年月日":"20100701","名称":"キリシマツツジ","住所":"長岡京市天神2-59","説明":"八条ヶ池中堤のキリシマツツジは、濃紅色の野生に近い品種で、高さ2.5m〜3mあり、大きく株別れし、約60mにわたり群生しており、その樹齢は150年ともいわれている。(以下詳細 別記 A35h-14_26_link.csv)"},"geometry":{"type":"Point","coordinates":[135.688303,34.923752]}},{"type":"Feature","properties":{"都道府県":"京都","データ種別":"景観重要樹木","ID":"3526209027","都道府県コード":"26","市区町村":"長岡京市","市区町村コード":"26209","指定番号":"27","指定年月日":"20100701","名称":"キリシマツツジ","住所":"長岡京市天神2-59","説明":"八条ヶ池中堤のキリシマツツジは、濃紅色の野生に近い品種で、高さ2.5m〜3mあり、大きく株別れし、約60mにわたり群生しており、その樹齢は150年ともいわれている。(以下詳細 別記 A35h-14_26_link.csv)"},"geometry":{"type":"Point","coordinates":[135.688285,34.923747]}},{"type":"Feature","properties":{"都道府県":"京都","データ種別":"景観重要樹木","ID":"3526209028","都道府県コード":"26","市区町村":"長岡京市","市区町村コード":"26209","指定番号":"28","指定年月日":"20100701","名称":"キリシマツツジ","住所":"長岡京市天神2-59","説明":"八条ヶ池中堤のキリシマツツジは、濃紅色の野生に近い品種で、高さ2.5m〜3mあり、大きく株別れし、約60mにわたり群生しており、その樹齢は150年ともいわれている。(以下詳細 別記 A35h-14_26_link.csv)"},"geometry":{"type":"Point","coordinates":[135.688268,34.92375]}},{"type":"Feature","properties":{"都道府県":"京都","データ種別":"景観重要樹木","ID":"3526209029","都道府県コード":"26","市区町村":"長岡京市","市区町村コード":"26209","指定番号":"29","指定年月日":"20100701","名称":"キリシマツツジ","住所":"長岡京市天神2-59","説明":"八条ヶ池中堤のキリシマツツジは、濃紅色の野生に近い品種で、高さ2.5m〜3mあり、大きく株別れし、約60mにわたり群生しており、その樹齢は150年ともいわれている。(以下詳細 別記 A35h-14_26_link.csv)"},"geometry":{"type":"Point","coordinates":[135.688258,34.923742]}},{"type":"Feature","properties":{"都道府県":"京都","データ種別":"景観重要樹木","ID":"3526209030","都道府県コード":"26","市区町村":"長岡京市","市区町村コード":"26209","指定番号":"30","指定年月日":"20100701","名称":"キリシマツツジ","住所":"長岡京市天神2-59","説明":"八条ヶ池中堤のキリシマツツジは、濃紅色の野生に近い品種で、高さ2.5m〜3mあり、大きく株別れし、約60mにわたり群生しており、その樹齢は150年ともいわれている。(以下詳細 別記 A35h-14_26_link.csv)"},"geometry":{"type":"Point","coordinates":[135.688247,34.923745]}},{"type":"Feature","properties":{"都道府県":"京都","データ種別":"景観重要樹木","ID":"3526209031","都道府県コード":"26","市区町村":"長岡京市","市区町村コード":"26209","指定番号":"31","指定年月日":"20100701","名称":"キリシマツツジ","住所":"長岡京市天神2-59","説明":"八条ヶ池中堤のキリシマツツジは、濃紅色の野生に近い品種で、高さ2.5m〜3mあり、大きく株別れし、約60mにわたり群生しており、その樹齢は150年ともいわれている。(以下詳細 別記 A35h-14_26_link.csv)"},"geometry":{"type":"Point","coordinates":[135.688231,34.923747]}},{"type":"Feature","properties":{"都道府県":"京都","データ種別":"景観重要樹木","ID":"3526209032","都道府県コード":"26","市区町村":"長岡京市","市区町村コード":"26209","指定番号":"32","指定年月日":"20100701","名称":"キリシマツツジ","住所":"長岡京市天神2-59","説明":"八条ヶ池中堤のキリシマツツジは、濃紅色の野生に近い品種で、高さ2.5m〜3mあり、大きく株別れし、約60mにわたり群生しており、その樹齢は150年ともいわれている。(以下詳細 別記 A35h-14_26_link.csv)"},"geometry":{"type":"Point","coordinates":[135.68822,34.92374]}},{"type":"Feature","properties":{"都道府県":"京都","データ種別":"景観重要樹木","ID":"3526209033","都道府県コード":"26","市区町村":"長岡京市","市区町村コード":"26209","指定番号":"33","指定年月日":"20100701","名称":"キリシマツツジ","住所":"長岡京市天神2-59","説明":"八条ヶ池中堤のキリシマツツジは、濃紅色の野生に近い品種で、高さ2.5m〜3mあり、大きく株別れし、約60mにわたり群生しており、その樹齢は150年ともいわれている。(以下詳細 別記 A35h-14_26_link.csv)"},"geometry":{"type":"Point","coordinates":[135.688205,34.923744]}},{"type":"Feature","properties":{"都道府県":"京都","データ種別":"景観重要樹木","ID":"3526209034","都道府県コード":"26","市区町村":"長岡京市","市区町村コード":"26209","指定番号":"34","指定年月日":"20100701","名称":"キリシマツツジ","住所":"長岡京市天神2-59","説明":"八条ヶ池中堤のキリシマツツジは、濃紅色の野生に近い品種で、高さ2.5m〜3mあり、大きく株別れし、約60mにわたり群生しており、その樹齢は150年ともいわれている。(以下詳細 別記 A35h-14_26_link.csv)"},"geometry":{"type":"Point","coordinates":[135.688191,34.923735]}},{"type":"Feature","properties":{"都道府県":"京都","データ種別":"景観重要樹木","ID":"3526209035","都道府県コード":"26","市区町村":"長岡京市","市区町村コード":"26209","指定番号":"35","指定年月日":"20100701","名称":"キリシマツツジ","住所":"長岡京市天神2-59","説明":"八条ヶ池中堤のキリシマツツジは、濃紅色の野生に近い品種で、高さ2.5m〜3mあり、大きく株別れし、約60mにわたり群生しており、その樹齢は150年ともいわれている。(以下詳細 別記 A35h-14_26_link.csv)"},"geometry":{"type":"Point","coordinates":[135.688166,34.92374]}},{"type":"Feature","properties":{"都道府県":"京都","データ種別":"景観重要樹木","ID":"3526209036","都道府県コード":"26","市区町村":"長岡京市","市区町村コード":"26209","指定番号":"36","指定年月日":"20100701","名称":"キリシマツツジ","住所":"長岡京市天神2-59","説明":"八条ヶ池中堤のキリシマツツジは、濃紅色の野生に近い品種で、高さ2.5m〜3mあり、大きく株別れし、約60mにわたり群生しており、その樹齢は150年ともいわれている。(以下詳細 別記 A35h-14_26_link.csv)"},"geometry":{"type":"Point","coordinates":[135.688077,34.923733]}},{"type":"Feature","properties":{"都道府県":"京都","データ種別":"景観重要樹木","ID":"3526209037","都道府県コード":"26","市区町村":"長岡京市","市区町村コード":"26209","指定番号":"37","指定年月日":"20100701","名称":"キリシマツツジ","住所":"長岡京市天神2-59","説明":"八条ヶ池中堤のキリシマツツジは、濃紅色の野生に近い品種で、高さ2.5m〜3mあり、大きく株別れし、約60mにわたり群生しており、その樹齢は150年ともいわれている。(以下詳細 別記 A35h-14_26_link.csv)"},"geometry":{"type":"Point","coordinates":[135.688073,34.923748]}},{"type":"Feature","properties":{"都道府県":"京都","データ種別":"景観重要樹木","ID":"3526209038","都道府県コード":"26","市区町村":"長岡京市","市区町村コード":"26209","指定番号":"38","指定年月日":"20100701","名称":"キリシマツツジ","住所":"長岡京市天神2-59","説明":"八条ヶ池中堤のキリシマツツジは、濃紅色の野生に近い品種で、高さ2.5m〜3mあり、大きく株別れし、約60mにわたり群生しており、その樹齢は150年ともいわれている。(以下詳細 別記 A35h-14_26_link.csv)"},"geometry":{"type":"Point","coordinates":[135.68806,34.92374]}},{"type":"Feature","properties":{"都道府県":"京都","データ種別":"景観重要樹木","ID":"3526209039","都道府県コード":"26","市区町村":"長岡京市","市区町村コード":"26209","指定番号":"39","指定年月日":"20100701","名称":"キリシマツツジ","住所":"長岡京市天神2-59","説明":"八条ヶ池中堤のキリシマツツジは、濃紅色の野生に近い品種で、高さ2.5m〜3mあり、大きく株別れし、約60mにわたり群生しており、その樹齢は150年ともいわれている。(以下詳細 別記 A35h-14_26_link.csv)"},"geometry":{"type":"Point","coordinates":[135.688054,34.923731]}},{"type":"Feature","properties":{"都道府県":"京都","データ種別":"景観重要樹木","ID":"3526209040","都道府県コード":"26","市区町村":"長岡京市","市区町村コード":"26209","指定番号":"40","指定年月日":"20100701","名称":"キリシマツツジ","住所":"長岡京市天神2-59","説明":"八条ヶ池中堤のキリシマツツジは、濃紅色の野生に近い品種で、高さ2.5m〜3mあり、大きく株別れし、約60mにわたり群生しており、その樹齢は150年ともいわれている。(以下詳細 別記 A35h-14_26_link.csv)"},"geometry":{"type":"Point","coordinates":[135.688046,34.923743]}},{"type":"Feature","properties":{"都道府県":"京都","データ種別":"景観重要樹木","ID":"3526209041","都道府県コード":"26","市区町村":"長岡京市","市区町村コード":"26209","指定番号":"41","指定年月日":"20100701","名称":"キリシマツツジ","住所":"長岡京市天神2-59","説明":"八条ヶ池中堤のキリシマツツジは、濃紅色の野生に近い品種で、高さ2.5m〜3mあり、大きく株別れし、約60mにわたり群生しており、その樹齢は150年ともいわれている。(以下詳細 別記 A35h-14_26_link.csv)"},"geometry":{"type":"Point","coordinates":[135.688031,34.923731]}},{"type":"Feature","properties":{"都道府県":"京都","データ種別":"景観重要樹木","ID":"3526209042","都道府県コード":"26","市区町村":"長岡京市","市区町村コード":"26209","指定番号":"42","指定年月日":"20100701","名称":"キリシマツツジ","住所":"長岡京市天神2-59","説明":"八条ヶ池中堤のキリシマツツジは、濃紅色の野生に近い品種で、高さ2.5m〜3mあり、大きく株別れし、約60mにわたり群生しており、その樹齢は150年ともいわれている。(以下詳細 別記 A35h-14_26_link.csv)"},"geometry":{"type":"Point","coordinates":[135.688014,34.923738]}},{"type":"Feature","properties":{"都道府県":"京都","データ種別":"景観重要樹木","ID":"3526209043","都道府県コード":"26","市区町村":"長岡京市","市区町村コード":"26209","指定番号":"43","指定年月日":"20100701","名称":"キリシマツツジ","住所":"長岡京市天神2-59","説明":"八条ヶ池中堤のキリシマツツジは、濃紅色の野生に近い品種で、高さ2.5m〜3mあり、大きく株別れし、約60mにわたり群生しており、その樹齢は150年ともいわれている。(以下詳細 別記 A35h-14_26_link.csv)"},"geometry":{"type":"Point","coordinates":[135.688003,34.923743]}},{"type":"Feature","properties":{"都道府県":"京都","データ種別":"景観重要樹木","ID":"3526209044","都道府県コード":"26","市区町村":"長岡京市","市区町村コード":"26209","指定番号":"44","指定年月日":"20100701","名称":"キリシマツツジ","住所":"長岡京市天神2-59","説明":"八条ヶ池中堤のキリシマツツジは、濃紅色の野生に近い品種で、高さ2.5m〜3mあり、大きく株別れし、約60mにわたり群生しており、その樹齢は150年ともいわれている。(以下詳細 別記 A35h-14_26_link.csv)"},"geometry":{"type":"Point","coordinates":[135.687998,34.923731]}},{"type":"Feature","properties":{"都道府県":"京都","データ種別":"景観重要樹木","ID":"3526209045","都道府県コード":"26","市区町村":"長岡京市","市区町村コード":"26209","指定番号":"45","指定年月日":"20100701","名称":"キリシマツツジ","住所":"長岡京市天神2-59","説明":"八条ヶ池中堤のキリシマツツジは、濃紅色の野生に近い品種で、高さ2.5m〜3mあり、大きく株別れし、約60mにわたり群生しており、その樹齢は150年ともいわれている。(以下詳細 別記 A35h-14_26_link.csv)"},"geometry":{"type":"Point","coordinates":[135.687988,34.923731]}},{"type":"Feature","properties":{"都道府県":"京都","データ種別":"景観重要樹木","ID":"3526209046","都道府県コード":"26","市区町村":"長岡京市","市区町村コード":"26209","指定番号":"46","指定年月日":"20100701","名称":"キリシマツツジ","住所":"長岡京市天神2-59","説明":"八条ヶ池中堤のキリシマツツジは、濃紅色の野生に近い品種で、高さ2.5m〜3mあり、大きく株別れし、約60mにわたり群生しており、その樹齢は150年ともいわれている。(以下詳細 別記 A35h-14_26_link.csv)"},"geometry":{"type":"Point","coordinates":[135.687978,34.923741]}},{"type":"Feature","properties":{"都道府県":"京都","データ種別":"景観重要樹木","ID":"3526209047","都道府県コード":"26","市区町村":"長岡京市","市区町村コード":"26209","指定番号":"47","指定年月日":"20100701","名称":"キリシマツツジ","住所":"長岡京市天神2-59","説明":"八条ヶ池中堤のキリシマツツジは、濃紅色の野生に近い品種で、高さ2.5m〜3mあり、大きく株別れし、約60mにわたり群生しており、その樹齢は150年ともいわれている。(以下詳細 別記 A35h-14_26_link.csv)"},"geometry":{"type":"Point","coordinates":[135.687959,34.923743]}},{"type":"Feature","properties":{"都道府県":"京都","データ種別":"景観重要樹木","ID":"3526209048","都道府県コード":"26","市区町村":"長岡京市","市区町村コード":"26209","指定番号":"48","指定年月日":"20100701","名称":"キリシマツツジ","住所":"長岡京市天神2-59","説明":"八条ヶ池中堤のキリシマツツジは、濃紅色の野生に近い品種で、高さ2.5m〜3mあり、大きく株別れし、約60mにわたり群生しており、その樹齢は150年ともいわれている。(以下詳細 別記 A35h-14_26_link.csv)"},"geometry":{"type":"Point","coordinates":[135.687948,34.923737]}},{"type":"Feature","properties":{"都道府県":"京都","データ種別":"景観重要樹木","ID":"3526209049","都道府県コード":"26","市区町村":"長岡京市","市区町村コード":"26209","指定番号":"49","指定年月日":"20100701","名称":"キリシマツツジ","住所":"長岡京市天神2-59","説明":"八条ヶ池中堤のキリシマツツジは、濃紅色の野生に近い品種で、高さ2.5m〜3mあり、大きく株別れし、約60mにわたり群生しており、その樹齢は150年ともいわれている。(以下詳細 別記 A35h-14_26_link.csv)"},"geometry":{"type":"Point","coordinates":[135.68793,34.923744]}},{"type":"Feature","properties":{"都道府県":"京都","データ種別":"景観重要樹木","ID":"3526209050","都道府県コード":"26","市区町村":"長岡京市","市区町村コード":"26209","指定番号":"50","指定年月日":"20100701","名称":"キリシマツツジ","住所":"長岡京市天神2-59","説明":"八条ヶ池中堤のキリシマツツジは、濃紅色の野生に近い品種で、高さ2.5m〜3mあり、大きく株別れし、約60mにわたり群生しており、その樹齢は150年ともいわれている。(以下詳細 別記 A35h-14_26_link.csv)"},"geometry":{"type":"Point","coordinates":[135.687918,34.923739]}},{"type":"Feature","properties":{"都道府県":"京都","データ種別":"景観重要樹木","ID":"3526209051","都道府県コード":"26","市区町村":"長岡京市","市区町村コード":"26209","指定番号":"51","指定年月日":"20100701","名称":"キリシマツツジ","住所":"長岡京市天神2-59","説明":"八条ヶ池中堤のキリシマツツジは、濃紅色の野生に近い品種で、高さ2.5m〜3mあり、大きく株別れし、約60mにわたり群生しており、その樹齢は150年ともいわれている。(以下詳細 別記 A35h-14_26_link.csv)"},"geometry":{"type":"Point","coordinates":[135.687908,34.923734]}},{"type":"Feature","properties":{"都道府県":"京都","データ種別":"景観重要樹木","ID":"3526209052","都道府県コード":"26","市区町村":"長岡京市","市区町村コード":"26209","指定番号":"52","指定年月日":"20100701","名称":"キリシマツツジ","住所":"長岡京市天神2-59","説明":"八条ヶ池中堤のキリシマツツジは、濃紅色の野生に近い品種で、高さ2.5m〜3mあり、大きく株別れし、約60mにわたり群生しており、その樹齢は150年ともいわれている。(以下詳細 別記 A35h-14_26_link.csv)"},"geometry":{"type":"Point","coordinates":[135.687907,34.923749]}},{"type":"Feature","properties":{"都道府県":"京都","データ種別":"景観重要樹木","ID":"3526209053","都道府県コード":"26","市区町村":"長岡京市","市区町村コード":"26209","指定番号":"53","指定年月日":"20100701","名称":"キリシマツツジ","住所":"長岡京市天神2-59","説明":"八条ヶ池中堤のキリシマツツジは、濃紅色の野生に近い品種で、高さ2.5m〜3mあり、大きく株別れし、約60mにわたり群生しており、その樹齢は150年ともいわれている。(以下詳細 別記 A35h-14_26_link.csv)"},"geometry":{"type":"Point","coordinates":[135.687904,34.923801]}},{"type":"Feature","properties":{"都道府県":"京都","データ種別":"景観重要樹木","ID":"3526209054","都道府県コード":"26","市区町村":"長岡京市","市区町村コード":"26209","指定番号":"54","指定年月日":"20100701","名称":"キリシマツツジ","住所":"長岡京市天神2-59","説明":"八条ヶ池中堤のキリシマツツジは、濃紅色の野生に近い品種で、高さ2.5m〜3mあり、大きく株別れし、約60mにわたり群生しており、その樹齢は150年ともいわれている。(以下詳細 別記 A35h-14_26_link.csv)"},"geometry":{"type":"Point","coordinates":[135.687923,34.923797]}},{"type":"Feature","properties":{"都道府県":"京都","データ種別":"景観重要樹木","ID":"3526209055","都道府県コード":"26","市区町村":"長岡京市","市区町村コード":"26209","指定番号":"55","指定年月日":"20100701","名称":"キリシマツツジ","住所":"長岡京市天神2-59","説明":"八条ヶ池中堤のキリシマツツジは、濃紅色の野生に近い品種で、高さ2.5m〜3mあり、大きく株別れし、約60mにわたり群生しており、その樹齢は150年ともいわれている。(以下詳細 別記 A35h-14_26_link.csv)"},"geometry":{"type":"Point","coordinates":[135.687934,34.923807]}},{"type":"Feature","properties":{"都道府県":"京都","データ種別":"景観重要樹木","ID":"3526209056","都道府県コード":"26","市区町村":"長岡京市","市区町村コード":"26209","指定番号":"56","指定年月日":"20100701","名称":"キリシマツツジ","住所":"長岡京市天神2-59","説明":"八条ヶ池中堤のキリシマツツジは、濃紅色の野生に近い品種で、高さ2.5m〜3mあり、大きく株別れし、約60mにわたり群生しており、その樹齢は150年ともいわれている。(以下詳細 別記 A35h-14_26_link.csv)"},"geometry":{"type":"Point","coordinates":[135.68794,34.9238]}},{"type":"Feature","properties":{"都道府県":"京都","データ種別":"景観重要樹木","ID":"3526209057","都道府県コード":"26","市区町村":"長岡京市","市区町村コード":"26209","指定番号":"57","指定年月日":"20100701","名称":"キリシマツツジ","住所":"長岡京市天神2-59","説明":"八条ヶ池中堤のキリシマツツジは、濃紅色の野生に近い品種で、高さ2.5m〜3mあり、大きく株別れし、約60mにわたり群生しており、その樹齢は150年ともいわれている。(以下詳細 別記 A35h-14_26_link.csv)"},"geometry":{"type":"Point","coordinates":[135.687947,34.923793]}},{"type":"Feature","properties":{"都道府県":"京都","データ種別":"景観重要樹木","ID":"3526209058","都道府県コード":"26","市区町村":"長岡京市","市区町村コード":"26209","指定番号":"58","指定年月日":"20100701","名称":"キリシマツツジ","住所":"長岡京市天神2-59","説明":"八条ヶ池中堤のキリシマツツジは、濃紅色の野生に近い品種で、高さ2.5m〜3mあり、大きく株別れし、約60mにわたり群生しており、その樹齢は150年ともいわれている。(以下詳細 別記 A35h-14_26_link.csv)"},"geometry":{"type":"Point","coordinates":[135.687961,34.923793]}},{"type":"Feature","properties":{"都道府県":"京都","データ種別":"景観重要樹木","ID":"3526209059","都道府県コード":"26","市区町村":"長岡京市","市区町村コード":"26209","指定番号":"59","指定年月日":"20100701","名称":"キリシマツツジ","住所":"長岡京市天神2-59","説明":"八条ヶ池中堤のキリシマツツジは、濃紅色の野生に近い品種で、高さ2.5m〜3mあり、大きく株別れし、約60mにわたり群生しており、その樹齢は150年ともいわれている。(以下詳細 別記 A35h-14_26_link.csv)"},"geometry":{"type":"Point","coordinates":[135.687974,34.923801]}},{"type":"Feature","properties":{"都道府県":"京都","データ種別":"景観重要樹木","ID":"3526209060","都道府県コード":"26","市区町村":"長岡京市","市区町村コード":"26209","指定番号":"60","指定年月日":"20100701","名称":"キリシマツツジ","住所":"長岡京市天神2-59","説明":"八条ヶ池中堤のキリシマツツジは、濃紅色の野生に近い品種で、高さ2.5m〜3mあり、大きく株別れし、約60mにわたり群生しており、その樹齢は150年ともいわれている。(以下詳細 別記 A35h-14_26_link.csv)"},"geometry":{"type":"Point","coordinates":[135.687987,34.9238]}},{"type":"Feature","properties":{"都道府県":"京都","データ種別":"景観重要樹木","ID":"3526209061","都道府県コード":"26","市区町村":"長岡京市","市区町村コード":"26209","指定番号":"61","指定年月日":"20100701","名称":"キリシマツツジ","住所":"長岡京市天神2-59","説明":"八条ヶ池中堤のキリシマツツジは、濃紅色の野生に近い品種で、高さ2.5m〜3mあり、大きく株別れし、約60mにわたり群生しており、その樹齢は150年ともいわれている。(以下詳細 別記 A35h-14_26_link.csv)"},"geometry":{"type":"Point","coordinates":[135.687997,34.923802]}},{"type":"Feature","properties":{"都道府県":"京都","データ種別":"景観重要樹木","ID":"3526209062","都道府県コード":"26","市区町村":"長岡京市","市区町村コード":"26209","指定番号":"62","指定年月日":"20100701","名称":"キリシマツツジ","住所":"長岡京市天神2-59","説明":"八条ヶ池中堤のキリシマツツジは、濃紅色の野生に近い品種で、高さ2.5m〜3mあり、大きく株別れし、約60mにわたり群生しており、その樹齢は150年ともいわれている。(以下詳細 別記 A35h-14_26_link.csv)"},"geometry":{"type":"Point","coordinates":[135.688005,34.923792]}},{"type":"Feature","properties":{"都道府県":"京都","データ種別":"景観重要樹木","ID":"3526209063","都道府県コード":"26","市区町村":"長岡京市","市区町村コード":"26209","指定番号":"63","指定年月日":"20100701","名称":"キリシマツツジ","住所":"長岡京市天神2-59","説明":"八条ヶ池中堤のキリシマツツジは、濃紅色の野生に近い品種で、高さ2.5m〜3mあり、大きく株別れし、約60mにわたり群生しており、その樹齢は150年ともいわれている。(以下詳細 別記 A35h-14_26_link.csv)"},"geometry":{"type":"Point","coordinates":[135.688019,34.923799]}},{"type":"Feature","properties":{"都道府県":"京都","データ種別":"景観重要樹木","ID":"3526209064","都道府県コード":"26","市区町村":"長岡京市","市区町村コード":"26209","指定番号":"64","指定年月日":"20100701","名称":"キリシマツツジ","住所":"長岡京市天神2-59","説明":"八条ヶ池中堤のキリシマツツジは、濃紅色の野生に近い品種で、高さ2.5m〜3mあり、大きく株別れし、約60mにわたり群生しており、その樹齢は150年ともいわれている。(以下詳細 別記 A35h-14_26_link.csv)"},"geometry":{"type":"Point","coordinates":[135.68804,34.923792]}},{"type":"Feature","properties":{"都道府県":"京都","データ種別":"景観重要樹木","ID":"3526209065","都道府県コード":"26","市区町村":"長岡京市","市区町村コード":"26209","指定番号":"65","指定年月日":"20100701","名称":"キリシマツツジ","住所":"長岡京市天神2-59","説明":"八条ヶ池中堤のキリシマツツジは、濃紅色の野生に近い品種で、高さ2.5m〜3mあり、大きく株別れし、約60mにわたり群生しており、その樹齢は150年ともいわれている。(以下詳細 別記 A35h-14_26_link.csv)"},"geometry":{"type":"Point","coordinates":[135.688052,34.923799]}},{"type":"Feature","properties":{"都道府県":"京都","データ種別":"景観重要樹木","ID":"3526209066","都道府県コード":"26","市区町村":"長岡京市","市区町村コード":"26209","指定番号":"66","指定年月日":"20100701","名称":"キリシマツツジ","住所":"長岡京市天神2-59","説明":"八条ヶ池中堤のキリシマツツジは、濃紅色の野生に近い品種で、高さ2.5m〜3mあり、大きく株別れし、約60mにわたり群生しており、その樹齢は150年ともいわれている。(以下詳細 別記 A35h-14_26_link.csv)"},"geometry":{"type":"Point","coordinates":[135.68807,34.9238]}},{"type":"Feature","properties":{"都道府県":"京都","データ種別":"景観重要樹木","ID":"3526209067","都道府県コード":"26","市区町村":"長岡京市","市区町村コード":"26209","指定番号":"67","指定年月日":"20100701","名称":"キリシマツツジ","住所":"長岡京市天神2-59","説明":"八条ヶ池中堤のキリシマツツジは、濃紅色の野生に近い品種で、高さ2.5m〜3mあり、大きく株別れし、約60mにわたり群生しており、その樹齢は150年ともいわれている。(以下詳細 別記 A35h-14_26_link.csv)"},"geometry":{"type":"Point","coordinates":[135.688169,34.923798]}},{"type":"Feature","properties":{"都道府県":"京都","データ種別":"景観重要樹木","ID":"3526209068","都道府県コード":"26","市区町村":"長岡京市","市区町村コード":"26209","指定番号":"68","指定年月日":"20100701","名称":"キリシマツツジ","住所":"長岡京市天神2-59","説明":"八条ヶ池中堤のキリシマツツジは、濃紅色の野生に近い品種で、高さ2.5m〜3mあり、大きく株別れし、約60mにわたり群生しており、その樹齢は150年ともいわれている。(以下詳細 別記 A35h-14_26_link.csv)"},"geometry":{"type":"Point","coordinates":[135.688197,34.9238]}},{"type":"Feature","properties":{"都道府県":"京都","データ種別":"景観重要樹木","ID":"3526209069","都道府県コード":"26","市区町村":"長岡京市","市区町村コード":"26209","指定番号":"69","指定年月日":"20100701","名称":"キリシマツツジ","住所":"長岡京市天神2-59","説明":"八条ヶ池中堤のキリシマツツジは、濃紅色の野生に近い品種で、高さ2.5m〜3mあり、大きく株別れし、約60mにわたり群生しており、その樹齢は150年ともいわれている。(以下詳細 別記 A35h-14_26_link.csv)"},"geometry":{"type":"Point","coordinates":[135.688219,34.923799]}},{"type":"Feature","properties":{"都道府県":"京都","データ種別":"景観重要樹木","ID":"3526209070","都道府県コード":"26","市区町村":"長岡京市","市区町村コード":"26209","指定番号":"70","指定年月日":"20100701","名称":"キリシマツツジ","住所":"長岡京市天神2-59","説明":"八条ヶ池中堤のキリシマツツジは、濃紅色の野生に近い品種で、高さ2.5m〜3mあり、大きく株別れし、約60mにわたり群生しており、その樹齢は150年ともいわれている。(以下詳細 別記 A35h-14_26_link.csv)"},"geometry":{"type":"Point","coordinates":[135.688234,34.923804]}},{"type":"Feature","properties":{"都道府県":"京都","データ種別":"景観重要樹木","ID":"3526209071","都道府県コード":"26","市区町村":"長岡京市","市区町村コード":"26209","指定番号":"71","指定年月日":"20100701","名称":"キリシマツツジ","住所":"長岡京市天神2-59","説明":"八条ヶ池中堤のキリシマツツジは、濃紅色の野生に近い品種で、高さ2.5m〜3mあり、大きく株別れし、約60mにわたり群生しており、その樹齢は150年ともいわれている。(以下詳細 別記 A35h-14_26_link.csv)"},"geometry":{"type":"Point","coordinates":[135.688246,34.923795]}},{"type":"Feature","properties":{"都道府県":"京都","データ種別":"景観重要樹木","ID":"3526209072","都道府県コード":"26","市区町村":"長岡京市","市区町村コード":"26209","指定番号":"72","指定年月日":"20100701","名称":"キリシマツツジ","住所":"長岡京市天神2-59","説明":"八条ヶ池中堤のキリシマツツジは、濃紅色の野生に近い品種で、高さ2.5m〜3mあり、大きく株別れし、約60mにわたり群生しており、その樹齢は150年ともいわれている。(以下詳細 別記 A35h-14_26_link.csv)"},"geometry":{"type":"Point","coordinates":[135.688259,34.923804]}},{"type":"Feature","properties":{"都道府県":"京都","データ種別":"景観重要樹木","ID":"3526209073","都道府県コード":"26","市区町村":"長岡京市","市区町村コード":"26209","指定番号":"73","指定年月日":"20100701","名称":"キリシマツツジ","住所":"長岡京市天神2-59","説明":"八条ヶ池中堤のキリシマツツジは、濃紅色の野生に近い品種で、高さ2.5m〜3mあり、大きく株別れし、約60mにわたり群生しており、その樹齢は150年ともいわれている。(以下詳細 別記 A35h-14_26_link.csv)"},"geometry":{"type":"Point","coordinates":[135.688274,34.923797]}},{"type":"Feature","properties":{"都道府県":"京都","データ種別":"景観重要樹木","ID":"3526209074","都道府県コード":"26","市区町村":"長岡京市","市区町村コード":"26209","指定番号":"74","指定年月日":"20100701","名称":"キリシマツツジ","住所":"長岡京市天神2-59","説明":"八条ヶ池中堤のキリシマツツジは、濃紅色の野生に近い品種で、高さ2.5m〜3mあり、大きく株別れし、約60mにわたり群生しており、その樹齢は150年ともいわれている。(以下詳細 別記 A35h-14_26_link.csv)"},"geometry":{"type":"Point","coordinates":[135.68829,34.923801]}},{"type":"Feature","properties":{"都道府県":"京都","データ種別":"景観重要樹木","ID":"3526209075","都道府県コード":"26","市区町村":"長岡京市","市区町村コード":"26209","指定番号":"75","指定年月日":"20100701","名称":"キリシマツツジ","住所":"長岡京市天神2-59","説明":"八条ヶ池中堤のキリシマツツジは、濃紅色の野生に近い品種で、高さ2.5m〜3mあり、大きく株別れし、約60mにわたり群生しており、その樹齢は150年ともいわれている。(以下詳細 別記 A35h-14_26_link.csv)"},"geometry":{"type":"Point","coordinates":[135.688306,34.923805]}},{"type":"Feature","properties":{"都道府県":"京都","データ種別":"景観重要樹木","ID":"3526209076","都道府県コード":"26","市区町村":"長岡京市","市区町村コード":"26209","指定番号":"76","指定年月日":"20100701","名称":"キリシマツツジ","住所":"長岡京市天神2-59","説明":"八条ヶ池中堤のキリシマツツジは、濃紅色の野生に近い品種で、高さ2.5m〜3mあり、大きく株別れし、約60mにわたり群生しており、その樹齢は150年ともいわれている。(以下詳細 別記 A35h-14_26_link.csv)"},"geometry":{"type":"Point","coordinates":[135.688323,34.923799]}},{"type":"Feature","properties":{"都道府県":"京都","データ種別":"景観重要樹木","ID":"3526209077","都道府県コード":"26","市区町村":"長岡京市","市区町村コード":"26209","指定番号":"77","指定年月日":"20100701","名称":"キリシマツツジ","住所":"長岡京市天神2-59","説明":"八条ヶ池中堤のキリシマツツジは、濃紅色の野生に近い品種で、高さ2.5m〜3mあり、大きく株別れし、約60mにわたり群生しており、その樹齢は150年ともいわれている。(以下詳細 別記 A35h-14_26_link.csv)"},"geometry":{"type":"Point","coordinates":[135.688339,34.923807]}},{"type":"Feature","properties":{"都道府県":"京都","データ種別":"景観重要樹木","ID":"3526209078","都道府県コード":"26","市区町村":"長岡京市","市区町村コード":"26209","指定番号":"78","指定年月日":"20100701","名称":"キリシマツツジ","住所":"長岡京市天神2-59","説明":"八条ヶ池中堤のキリシマツツジは、濃紅色の野生に近い品種で、高さ2.5m〜3mあり、大きく株別れし、約60mにわたり群生しており、その樹齢は150年ともいわれている。(以下詳細 別記 A35h-14_26_link.csv)"},"geometry":{"type":"Point","coordinates":[135.68835,34.923797]}},{"type":"Feature","properties":{"都道府県":"京都","データ種別":"景観重要樹木","ID":"3526209079","都道府県コード":"26","市区町村":"長岡京市","市区町村コード":"26209","指定番号":"79","指定年月日":"20100701","名称":"キリシマツツジ","住所":"長岡京市天神2-59","説明":"八条ヶ池中堤のキリシマツツジは、濃紅色の野生に近い品種で、高さ2.5m〜3mあり、大きく株別れし、約60mにわたり群生しており、その樹齢は150年ともいわれている。(以下詳細 別記 A35h-14_26_link.csv)"},"geometry":{"type":"Point","coordinates":[135.688366,34.923801]}},{"type":"Feature","properties":{"都道府県":"京都","データ種別":"景観重要樹木","ID":"3526209080","都道府県コード":"26","市区町村":"長岡京市","市区町村コード":"26209","指定番号":"80","指定年月日":"20100701","名称":"キリシマツツジ","住所":"長岡京市天神2-59","説明":"八条ヶ池中堤のキリシマツツジは、濃紅色の野生に近い品種で、高さ2.5m〜3mあり、大きく株別れし、約60mにわたり群生しており、その樹齢は150年ともいわれている。(以下詳細 別記 A35h-14_26_link.csv)"},"geometry":{"type":"Point","coordinates":[135.688386,34.923801]}},{"type":"Feature","properties":{"都道府県":"京都","データ種別":"景観重要樹木","ID":"3526209081","都道府県コード":"26","市区町村":"長岡京市","市区町村コード":"26209","指定番号":"81","指定年月日":"20100701","名称":"キリシマツツジ","住所":"長岡京市天神2-59","説明":"八条ヶ池中堤のキリシマツツジは、濃紅色の野生に近い品種で、高さ2.5m〜3mあり、大きく株別れし、約60mにわたり群生しており、その樹齢は150年ともいわれている。(以下詳細 別記 A35h-14_26_link.csv)"},"geometry":{"type":"Point","coordinates":[135.688401,34.923808]}},{"type":"Feature","properties":{"都道府県":"京都","データ種別":"景観重要樹木","ID":"3526209082","都道府県コード":"26","市区町村":"長岡京市","市区町村コード":"26209","指定番号":"82","指定年月日":"20100701","名称":"キリシマツツジ","住所":"長岡京市天神2-59","説明":"八条ヶ池中堤のキリシマツツジは、濃紅色の野生に近い品種で、高さ2.5m〜3mあり、大きく株別れし、約60mにわたり群生しており、その樹齢は150年ともいわれている。(以下詳細 別記 A35h-14_26_link.csv)"},"geometry":{"type":"Point","coordinates":[135.688413,34.923796]}},{"type":"Feature","properties":{"都道府県":"京都","データ種別":"景観重要樹木","ID":"3526209083","都道府県コード":"26","市区町村":"長岡京市","市区町村コード":"26209","指定番号":"83","指定年月日":"20100701","名称":"キリシマツツジ","住所":"長岡京市天神2-59","説明":"八条ヶ池中堤のキリシマツツジは、濃紅色の野生に近い品種で、高さ2.5m〜3mあり、大きく株別れし、約60mにわたり群生しており、その樹齢は150年ともいわれている。(以下詳細 別記 A35h-14_26_link.csv)"},"geometry":{"type":"Point","coordinates":[135.688425,34.923809]}},{"type":"Feature","properties":{"都道府県":"京都","データ種別":"景観重要樹木","ID":"3526209084","都道府県コード":"26","市区町村":"長岡京市","市区町村コード":"26209","指定番号":"84","指定年月日":"20100701","名称":"キリシマツツジ","住所":"長岡京市天神2-59","説明":"八条ヶ池中堤のキリシマツツジは、濃紅色の野生に近い品種で、高さ2.5m〜3mあり、大きく株別れし、約60mにわたり群生しており、その樹齢は150年ともいわれている。(以下詳細 別記 A35h-14_26_link.csv)"},"geometry":{"type":"Point","coordinates":[135.688431,34.923798]}},{"type":"Feature","properties":{"都道府県":"京都","データ種別":"景観重要樹木","ID":"3526209085","都道府県コード":"26","市区町村":"長岡京市","市区町村コード":"26209","指定番号":"85","指定年月日":"20100701","名称":"キリシマツツジ","住所":"長岡京市天神2-59","説明":"八条ヶ池中堤のキリシマツツジは、濃紅色の野生に近い品種で、高さ2.5m〜3mあり、大きく株別れし、約60mにわたり群生しており、その樹齢は150年ともいわれている。(以下詳細 別記 A35h-14_26_link.csv)"},"geometry":{"type":"Point","coordinates":[135.688442,34.923799]}},{"type":"Feature","properties":{"都道府県":"京都","データ種別":"景観重要樹木","ID":"3526209086","都道府県コード":"26","市区町村":"長岡京市","市区町村コード":"26209","指定番号":"86","指定年月日":"20100701","名称":"キリシマツツジ","住所":"長岡京市天神2-59","説明":"八条ヶ池中堤のキリシマツツジは、濃紅色の野生に近い品種で、高さ2.5m〜3mあり、大きく株別れし、約60mにわたり群生しており、その樹齢は150年ともいわれている。(以下詳細 別記 A35h-14_26_link.csv)"},"geometry":{"type":"Point","coordinates":[135.688457,34.923799]}},{"type":"Feature","properties":{"都道府県":"京都","データ種別":"景観重要樹木","ID":"3526209087","都道府県コード":"26","市区町村":"長岡京市","市区町村コード":"26209","指定番号":"87","指定年月日":"20100701","名称":"キリシマツツジ","住所":"長岡京市天神2-59","説明":"八条ヶ池中堤のキリシマツツジは、濃紅色の野生に近い品種で、高さ2.5m〜3mあり、大きく株別れし、約60mにわたり群生しており、その樹齢は150年ともいわれている。(以下詳細 別記 A35h-14_26_link.csv)"},"geometry":{"type":"Point","coordinates":[135.68847,34.923794]}},{"type":"Feature","properties":{"都道府県":"京都","データ種別":"景観重要樹木","ID":"3526209088","都道府県コード":"26","市区町村":"長岡京市","市区町村コード":"26209","指定番号":"88","指定年月日":"20100701","名称":"キリシマツツジ","住所":"長岡京市天神2-59","説明":"八条ヶ池中堤のキリシマツツジは、濃紅色の野生に近い品種で、高さ2.5m〜3mあり、大きく株別れし、約60mにわたり群生しており、その樹齢は150年ともいわれている。(以下詳細 別記 A35h-14_26_link.csv)"},"geometry":{"type":"Point","coordinates":[135.68848,34.92381]}},{"type":"Feature","properties":{"都道府県":"京都","データ種別":"景観重要樹木","ID":"3526209089","都道府県コード":"26","市区町村":"長岡京市","市区町村コード":"26209","指定番号":"89","指定年月日":"20100701","名称":"キリシマツツジ","住所":"長岡京市天神2-59","説明":"八条ヶ池中堤のキリシマツツジは、濃紅色の野生に近い品種で、高さ2.5m〜3mあり、大きく株別れし、約60mにわたり群生しており、その樹齢は150年ともいわれている。(以下詳細 別記 A35h-14_26_link.csv)"},"geometry":{"type":"Point","coordinates":[135.688495,34.923804]}},{"type":"Feature","properties":{"都道府県":"京都","データ種別":"景観重要樹木","ID":"3526209090","都道府県コード":"26","市区町村":"長岡京市","市区町村コード":"26209","指定番号":"90","指定年月日":"20100701","名称":"キリシマツツジ","住所":"長岡京市天神2-59","説明":"八条ヶ池中堤のキリシマツツジは、濃紅色の野生に近い品種で、高さ2.5m〜3mあり、大きく株別れし、約60mにわたり群生しており、その樹齢は150年ともいわれている。(以下詳細 別記 A35h-14_26_link.csv)"},"geometry":{"type":"Point","coordinates":[135.688511,34.923814]}},{"type":"Feature","properties":{"都道府県":"京都","データ種別":"景観重要樹木","ID":"3526209091","都道府県コード":"26","市区町村":"長岡京市","市区町村コード":"26209","指定番号":"91","指定年月日":"20100701","名称":"キリシマツツジ","住所":"長岡京市天神2-59","説明":"八条ヶ池中堤のキリシマツツジは、濃紅色の野生に近い品種で、高さ2.5m〜3mあり、大きく株別れし、約60mにわたり群生しており、その樹齢は150年ともいわれている。(以下詳細 別記 A35h-14_26_link.csv)"},"geometry":{"type":"Point","coordinates":[135.68852,34.923802]}},{"type":"Feature","properties":{"都道府県":"京都","データ種別":"景観重要樹木","ID":"3526209092","都道府県コード":"26","市区町村":"長岡京市","市区町村コード":"26209","指定番号":"92","指定年月日":"20100701","名称":"キリシマツツジ","住所":"長岡京市天神2-59","説明":"八条ヶ池中堤のキリシマツツジは、濃紅色の野生に近い品種で、高さ2.5m〜3mあり、大きく株別れし、約60mにわたり群生しており、その樹齢は150年ともいわれている。(以下詳細 別記 A35h-14_26_link.csv)"},"geometry":{"type":"Point","coordinates":[135.688532,34.92381]}},{"type":"Feature","properties":{"都道府県":"京都","データ種別":"景観重要樹木","ID":"3526209093","都道府県コード":"26","市区町村":"長岡京市","市区町村コード":"26209","指定番号":"93","指定年月日":"20100701","名称":"キリシマツツジ","住所":"長岡京市天神2-59","説明":"八条ヶ池中堤のキリシマツツジは、濃紅色の野生に近い品種で、高さ2.5m〜3mあり、大きく株別れし、約60mにわたり群生しており、その樹齢は150年ともいわれている。(以下詳細 別記 A35h-14_26_link.csv)"},"geometry":{"type":"Point","coordinates":[135.688542,34.923814]}},{"type":"Feature","properties":{"都道府県":"京都","データ種別":"景観重要樹木","ID":"3526209094","都道府県コード":"26","市区町村":"長岡京市","市区町村コード":"26209","指定番号":"94","指定年月日":"20100701","名称":"キリシマツツジ","住所":"長岡京市天神2-59","説明":"八条ヶ池中堤のキリシマツツジは、濃紅色の野生に近い品種で、高さ2.5m〜3mあり、大きく株別れし、約60mにわたり群生しており、その樹齢は150年ともいわれている。(以下詳細 別記 A35h-14_26_link.csv)"},"geometry":{"type":"Point","coordinates":[135.68855,34.923808]}},{"type":"Feature","properties":{"都道府県":"京都","データ種別":"景観重要樹木","ID":"3526209095","都道府県コード":"26","市区町村":"長岡京市","市区町村コード":"26209","指定番号":"95","指定年月日":"20100701","名称":"キリシマツツジ","住所":"長岡京市天神2-59","説明":"八条ヶ池中堤のキリシマツツジは、濃紅色の野生に近い品種で、高さ2.5m〜3mあり、大きく株別れし、約60mにわたり群生しており、その樹齢は150年ともいわれている。(以下詳細 別記 A35h-14_26_link.csv)"},"geometry":{"type":"Point","coordinates":[135.68857,34.923807]}},{"type":"Feature","properties":{"都道府県":"京都","データ種別":"景観重要樹木","ID":"3526209096","都道府県コード":"26","市区町村":"長岡京市","市区町村コード":"26209","指定番号":"96","指定年月日":"20100701","名称":"キリシマツツジ","住所":"長岡京市天神2-59","説明":"八条ヶ池中堤のキリシマツツジは、濃紅色の野生に近い品種で、高さ2.5m〜3mあり、大きく株別れし、約60mにわたり群生しており、その樹齢は150年ともいわれている。(以下詳細 別記 A35h-14_26_link.csv)"},"geometry":{"type":"Point","coordinates":[135.68859,34.923806]}},{"type":"Feature","properties":{"都道府県":"京都","データ種別":"景観重要樹木","ID":"3526209097","都道府県コード":"26","市区町村":"長岡京市","市区町村コード":"26209","指定番号":"97","指定年月日":"20100701","名称":"キリシマツツジ","住所":"長岡京市天神2-59","説明":"八条ヶ池中堤のキリシマツツジは、濃紅色の野生に近い品種で、高さ2.5m〜3mあり、大きく株別れし、約60mにわたり群生しており、その樹齢は150年ともいわれている。(以下詳細 別記 A35h-14_26_link.csv)"},"geometry":{"type":"Point","coordinates":[135.688606,34.923802]}},{"type":"Feature","properties":{"都道府県":"京都","データ種別":"景観重要樹木","ID":"3526209098","都道府県コード":"26","市区町村":"長岡京市","市区町村コード":"26209","指定番号":"98","指定年月日":"20100701","名称":"キリシマツツジ","住所":"長岡京市天神2-59","説明":"八条ヶ池中堤のキリシマツツジは、濃紅色の野生に近い品種で、高さ2.5m〜3mあり、大きく株別れし、約60mにわたり群生しており、その樹齢は150年ともいわれている。(以下詳細 別記 A35h-14_26_link.csv)"},"geometry":{"type":"Point","coordinates":[135.688621,34.923805]}},{"type":"Feature","properties":{"都道府県":"京都","データ種別":"景観重要樹木","ID":"3526209099","都道府県コード":"26","市区町村":"長岡京市","市区町村コード":"26209","指定番号":"99","指定年月日":"20100701","名称":"キリシマツツジ","住所":"長岡京市天神2-59","説明":"八条ヶ池中堤のキリシマツツジは、濃紅色の野生に近い品種で、高さ2.5m〜3mあり、大きく株別れし、約60mにわたり群生しており、その樹齢は150年ともいわれている。(以下詳細 別記 A35h-14_26_link.csv)"},"geometry":{"type":"Point","coordinates":[135.688638,34.923815]}},{"type":"Feature","properties":{"都道府県":"京都","データ種別":"景観重要樹木","ID":"3526209100","都道府県コード":"26","市区町村":"長岡京市","市区町村コード":"26209","指定番号":"100","指定年月日":"20100701","名称":"キリシマツツジ","住所":"長岡京市天神2-59","説明":"八条ヶ池中堤のキリシマツツジは、濃紅色の野生に近い品種で、高さ2.5m〜3mあり、大きく株別れし、約60mにわたり群生しており、その樹齢は150年ともいわれている。(以下詳細 別記 A35h-14_26_link.csv)"},"geometry":{"type":"Point","coordinates":[135.688657,34.923802]}},{"type":"Feature","properties":{"都道府県":"京都","データ種別":"景観重要樹木","ID":"3526209101","都道府県コード":"26","市区町村":"長岡京市","市区町村コード":"26209","指定番号":"101","指定年月日":"20100701","名称":"キリシマツツジ","住所":"長岡京市天神2-59","説明":"八条ヶ池中堤のキリシマツツジは、濃紅色の野生に近い品種で、高さ2.5m〜3mあり、大きく株別れし、約60mにわたり群生しており、その樹齢は150年ともいわれている。(以下詳細 別記 A35h-14_26_link.csv)"},"geometry":{"type":"Point","coordinates":[135.688651,34.923817]}},{"type":"Feature","properties":{"都道府県":"奈良","データ種別":"景観重要樹木","ID":"3529205001","都道府県コード":"29","市区町村":"橿原市","市区町村コード":"29205","指定番号":"橿原市景観重要樹木 第1号","指定年月日":"20090701","名称":"エノキ","住所":"橿原市今井町1（蘇武橋西詰め）","説明":"橿原市景観計画における景観重要樹木の指定の方針に記載されている全てを満たしている。(以下詳細 別記 A35h-14_29_link.csv)"},"geometry":{"type":"Point","coordinates":[135.789766,34.507909]}}]}