{
  "type": "FeatureCollection",
  "features": [
    {
      "type": "Feature",
      "properties": {
        "name": "大津市役所"
      },
      "geometry": {
        "type": "Point",
        "coordinates": [
          135.854666,
          35.018357
        ]
      }
    },
    {
      "type": "Feature",
      "properties": {
        "name": "小松支所"
      },
      "geometry": {
        "type": "Point",
        "coordinates": [
          135.973817,
          35.255051
        ]
      }
    },
    {
      "type": "Feature",
      "properties": {
        "name": "木戸支所"
      },
      "geometry": {
        "type": "Point",
        "coordinates": [
          135.921096,
          35.206392
        ]
      }
    },
    {
      "type": "Feature",
      "properties": {
        "name": "和邇支所"
      },
      "geometry": {
        "type": "Point",
        "coordinates": [
          135.92169,
          35.159574
        ]
      }
    },
    {
      "type": "Feature",
      "properties": {
        "name": "小野支所"
      },
      "geometry": {
        "type": "Point",
        "coordinates": [
          135.922284,
          35.142007
        ]
      }
    },
    {
      "type": "Feature",
      "properties": {
        "name": "伊香立支所"
      },
      "geometry": {
        "type": "Point",
        "coordinates": [
          135.872551,
          35.142314
        ]
      }
    },
    {
      "type": "Feature",
      "properties": {
        "name": "真野北支所"
      },
      "geometry": {
        "type": "Point",
        "coordinates": [
          135.90885,
          35.141567
        ]
      }
    },
    {
      "type": "Feature",
      "properties": {
        "name": "真野支所"
      },
      "geometry": {
        "type": "Point",
        "coordinates": [
          135.912588,
          35.131572
        ]
      }
    },
    {
      "type": "Feature",
      "properties": {
        "name": "堅田支所"
      },
      "geometry": {
        "type": "Point",
        "coordinates": [
          135.91477,
          35.114271
        ]
      }
    },
    {
      "type": "Feature",
      "properties": {
        "name": "仰木支所"
      },
      "geometry": {
        "type": "Point",
        "coordinates": [
          135.882169,
          35.108129
        ]
      }
    },
    {
      "type": "Feature",
      "properties": {
        "name": "仰木の里支所"
      },
      "geometry": {
        "type": "Point",
        "coordinates": [
          135.894159,
          35.109013
        ]
      }
    },
    {
      "type": "Feature",
      "properties": {
        "name": "雄琴支所"
      },
      "geometry": {
        "type": "Point",
        "coordinates": [
          135.895632,
          35.090054
        ]
      }
    },
    {
      "type": "Feature",
      "properties": {
        "name": "坂本支所"
      },
      "geometry": {
        "type": "Point",
        "coordinates": [
          135.870768,
          35.071484
        ]
      }
    },
    {
      "type": "Feature",
      "properties": {
        "name": "日吉台支所"
      },
      "geometry": {
        "type": "Point",
        "coordinates": [
          135.878723,
          35.079208
        ]
      }
    },
    {
      "type": "Feature",
      "properties": {
        "name": "唐崎支所"
      },
      "geometry": {
        "type": "Point",
        "coordinates": [
          135.865666,
          35.04851
        ]
      }
    },
    {
      "type": "Feature",
      "properties": {
        "name": "滋賀支所"
      },
      "geometry": {
        "type": "Point",
        "coordinates": [
          135.857063,
          35.035629
        ]
      }
    },
    {
      "type": "Feature",
      "properties": {
        "name": "下阪本支所"
      },
      "geometry": {
        "type": "Point",
        "coordinates": [
          135.876235,
          35.062402
        ]
      }
    },
    {
      "type": "Feature",
      "properties": {
        "name": "葛川支所"
      },
      "geometry": {
        "type": "Point",
        "coordinates": [
          135.866843,
          35.247824
        ]
      }
    },
    {
      "type": "Feature",
      "properties": {
        "name": "藤尾支所"
      },
      "geometry": {
        "type": "Point",
        "coordinates": [
          135.832851,
          34.993098
        ]
      }
    },
    {
      "type": "Feature",
      "properties": {
        "name": "長等支所"
      },
      "geometry": {
        "type": "Point",
        "coordinates": [
          135.857871,
          35.014949
        ]
      }
    },
    {
      "type": "Feature",
      "properties": {
        "name": "山中比叡平支所"
      },
      "geometry": {
        "type": "Point",
        "coordinates": [
          135.83134,
          35.031291
        ]
      }
    },
    {
      "type": "Feature",
      "properties": {
        "name": "中央支所"
      },
      "geometry": {
        "type": "Point",
        "coordinates": [
          135.865498,
          35.008405
        ]
      }
    },
    {
      "type": "Feature",
      "properties": {
        "name": "逢坂支所"
      },
      "geometry": {
        "type": "Point",
        "coordinates": [
          135.865499,
          35.004375
        ]
      }
    },
    {
      "type": "Feature",
      "properties": {
        "name": "膳所支所"
      },
      "geometry": {
        "type": "Point",
        "coordinates": [
          135.893663,
          34.994707
        ]
      }
    },
    {
      "type": "Feature",
      "properties": {
        "name": "平野支所"
      },
      "geometry": {
        "type": "Point",
        "coordinates": [
          135.879489,
          35.002981
        ]
      }
    },
    {
      "type": "Feature",
      "properties": {
        "name": "富士見支所"
      },
      "geometry": {
        "type": "Point",
        "coordinates": [
          135.887966,
          34.985555
        ]
      }
    },
    {
      "type": "Feature",
      "properties": {
        "name": "晴嵐支所"
      },
      "geometry": {
        "type": "Point",
        "coordinates": [
          135.899159,
          34.975804
        ]
      }
    },
    {
      "type": "Feature",
      "properties": {
        "name": "石山支所"
      },
      "geometry": {
        "type": "Point",
        "coordinates": [
          135.908339,
          34.954098
        ]
      }
    },
    {
      "type": "Feature",
      "properties": {
        "name": "南郷支所"
      },
      "geometry": {
        "type": "Point",
        "coordinates": [
          135.908264,
          34.942357
        ]
      }
    },
    {
      "type": "Feature",
      "properties": {
        "name": "大石支所"
      },
      "geometry": {
        "type": "Point",
        "coordinates": [
          135.913066,
          34.910202
        ]
      }
    },
    {
      "type": "Feature",
      "properties": {
        "name": "田上支所"
      },
      "geometry": {
        "type": "Point",
        "coordinates": [
          135.928864,
          34.938302
        ]
      }
    },
    {
      "type": "Feature",
      "properties": {
        "name": "上田上支所"
      },
      "geometry": {
        "type": "Point",
        "coordinates": [
          135.961917,
          34.959576
        ]
      }
    },
    {
      "type": "Feature",
      "properties": {
        "name": "瀬田支所"
      },
      "geometry": {
        "type": "Point",
        "coordinates": [
          135.919879,
          34.981434
        ]
      }
    },
    {
      "type": "Feature",
      "properties": {
        "name": "瀬田北支所"
      },
      "geometry": {
        "type": "Point",
        "coordinates": [
          135.924454,
          34.99136
        ]
      }
    },
    {
      "type": "Feature",
      "properties": {
        "name": "瀬田南支所"
      },
      "geometry": {
        "type": "Point",
        "coordinates": [
          135.914191,
          34.971291
        ]
      }
    },
    {
      "type": "Feature",
      "properties": {
        "name": "瀬田東支所"
      },
      "geometry": {
        "type": "Point",
        "coordinates": [
          135.934511,
          34.98489
        ]
      }
    },
    {
      "type": "Feature",
      "properties": {
        "name": "青山支所"
      },
      "geometry": {
        "type": "Point",
        "coordinates": [
          135.969402,
          34.977411
        ]
      }
    },
    {
      "type": "Feature",
      "properties": {
        "name": "彦根市役所"
      },
      "geometry": {
        "type": "Point",
        "coordinates": [
          136.259623,
          35.274464
        ]
      }
    },
    {
      "type": "Feature",
      "properties": {
        "name": "稲枝支所"
      },
      "geometry": {
        "type": "Point",
        "coordinates": [
          136.180163,
          35.213352
        ]
      }
    },
    {
      "type": "Feature",
      "properties": {
        "name": "鳥居本出張所"
      },
      "geometry": {
        "type": "Point",
        "coordinates": [
          136.287264,
          35.280744
        ]
      }
    },
    {
      "type": "Feature",
      "properties": {
        "name": "高宮出張所"
      },
      "geometry": {
        "type": "Point",
        "coordinates": [
          136.256792,
          35.234857
        ]
      }
    },
    {
      "type": "Feature",
      "properties": {
        "name": "河瀬出張所"
      },
      "geometry": {
        "type": "Point",
        "coordinates": [
          136.239868,
          35.228796
        ]
      }
    },
    {
      "type": "Feature",
      "properties": {
        "name": "亀山出張所"
      },
      "geometry": {
        "type": "Point",
        "coordinates": [
          136.212587,
          35.220765
        ]
      }
    },
    {
      "type": "Feature",
      "properties": {
        "name": "長浜市役所"
      },
      "geometry": {
        "type": "Point",
        "coordinates": [
          136.275444,
          35.381447
        ]
      }
    },
    {
      "type": "Feature",
      "properties": {
        "name": "浅井支所"
      },
      "geometry": {
        "type": "Point",
        "coordinates": [
          136.298238,
          35.428643
        ]
      }
    },
    {
      "type": "Feature",
      "properties": {
        "name": "びわ支所"
      },
      "geometry": {
        "type": "Point",
        "coordinates": [
          136.233954,
          35.411499
        ]
      }
    },
    {
      "type": "Feature",
      "properties": {
        "name": "虎姫支所"
      },
      "geometry": {
        "type": "Point",
        "coordinates": [
          136.264685,
          35.419848
        ]
      }
    },
    {
      "type": "Feature",
      "properties": {
        "name": "湖北支所"
      },
      "geometry": {
        "type": "Point",
        "coordinates": [
          136.233777,
          35.446508
        ]
      }
    },
    {
      "type": "Feature",
      "properties": {
        "name": "高月支所"
      },
      "geometry": {
        "type": "Point",
        "coordinates": [
          136.234488,
          35.474472
        ]
      }
    },
    {
      "type": "Feature",
      "properties": {
        "name": "木之本支所"
      },
      "geometry": {
        "type": "Point",
        "coordinates": [
          136.222598,
          35.502245
        ]
      }
    },
    {
      "type": "Feature",
      "properties": {
        "name": "余呉支所"
      },
      "geometry": {
        "type": "Point",
        "coordinates": [
          136.205208,
          35.542901
        ]
      }
    },
    {
      "type": "Feature",
      "properties": {
        "name": "西浅井支所"
      },
      "geometry": {
        "type": "Point",
        "coordinates": [
          136.123574,
          35.498536
        ]
      }
    },
    {
      "type": "Feature",
      "properties": {
        "name": "近江八幡市役所"
      },
      "geometry": {
        "type": "Point",
        "coordinates": [
          136.097846,
          35.128214
        ]
      }
    },
    {
      "type": "Feature",
      "properties": {
        "name": "安土町総合支所"
      },
      "geometry": {
        "type": "Point",
        "coordinates": [
          136.141024,
          35.132324
        ]
      }
    },
    {
      "type": "Feature",
      "properties": {
        "name": "草津市役所"
      },
      "geometry": {
        "type": "Point",
        "coordinates": [
          135.959994,
          35.013123
        ]
      }
    },
    {
      "type": "Feature",
      "properties": {
        "name": "志津市民センター"
      },
      "geometry": {
        "type": "Point",
        "coordinates": [
          135.974618,
          35.005638
        ]
      }
    },
    {
      "type": "Feature",
      "properties": {
        "name": "志津南市民センター"
      },
      "geometry": {
        "type": "Point",
        "coordinates": [
          135.969841,
          34.985343
        ]
      }
    },
    {
      "type": "Feature",
      "properties": {
        "name": "草津市民センター"
      },
      "geometry": {
        "type": "Point",
        "coordinates": [
          135.960947,
          35.017867
        ]
      }
    },
    {
      "type": "Feature",
      "properties": {
        "name": "大路市民センター"
      },
      "geometry": {
        "type": "Point",
        "coordinates": [
          135.966969,
          35.020604
        ]
      }
    },
    {
      "type": "Feature",
      "properties": {
        "name": "渋川市民センター"
      },
      "geometry": {
        "type": "Point",
        "coordinates": [
          135.964696,
          35.030335
        ]
      }
    },
    {
      "type": "Feature",
      "properties": {
        "name": "矢倉市民センター"
      },
      "geometry": {
        "type": "Point",
        "coordinates": [
          135.954573,
          35.005002
        ]
      }
    },
    {
      "type": "Feature",
      "properties": {
        "name": "老上市民センター"
      },
      "geometry": {
        "type": "Point",
        "coordinates": [
          135.937477,
          35.003696
        ]
      }
    },
    {
      "type": "Feature",
      "properties": {
        "name": "玉川市民センター"
      },
      "geometry": {
        "type": "Point",
        "coordinates": [
          135.949296,
          34.99485
        ]
      }
    },
    {
      "type": "Feature",
      "properties": {
        "name": "南笠東市民センター"
      },
      "geometry": {
        "type": "Point",
        "coordinates": [
          135.945738,
          34.992064
        ]
      }
    },
    {
      "type": "Feature",
      "properties": {
        "name": "山田市民センター"
      },
      "geometry": {
        "type": "Point",
        "coordinates": [
          135.931427,
          35.024618
        ]
      }
    },
    {
      "type": "Feature",
      "properties": {
        "name": "笠縫市民センター"
      },
      "geometry": {
        "type": "Point",
        "coordinates": [
          135.946436,
          35.03242
        ]
      }
    },
    {
      "type": "Feature",
      "properties": {
        "name": "笠縫東市民センター"
      },
      "geometry": {
        "type": "Point",
        "coordinates": [
          135.950837,
          35.036965
        ]
      }
    },
    {
      "type": "Feature",
      "properties": {
        "name": "常盤市民センター"
      },
      "geometry": {
        "type": "Point",
        "coordinates": [
          135.94445,
          35.052795
        ]
      }
    },
    {
      "type": "Feature",
      "properties": {
        "name": "市民交流プラザ"
      },
      "geometry": {
        "type": "Point",
        "coordinates": [
          135.94749,
          35.003091
        ]
      }
    },
    {
      "type": "Feature",
      "properties": {
        "name": "守山市役所"
      },
      "geometry": {
        "type": "Point",
        "coordinates": [
          135.99402,
          35.058663
        ]
      }
    },
    {
      "type": "Feature",
      "properties": {
        "name": "速野支所"
      },
      "geometry": {
        "type": "Point",
        "coordinates": [
          135.958376,
          35.100359
        ]
      }
    },
    {
      "type": "Feature",
      "properties": {
        "name": "中洲支所"
      },
      "geometry": {
        "type": "Point",
        "coordinates": [
          135.986185,
          35.109114
        ]
      }
    },
    {
      "type": "Feature",
      "properties": {
        "name": "駅前総合案内所"
      },
      "geometry": {
        "type": "Point",
        "coordinates": [
          135.995504,
          35.050699
        ]
      }
    },
    {
      "type": "Feature",
      "properties": {
        "name": "市民サービスセンター"
      },
      "geometry": {
        "type": "Point",
        "coordinates": [
          135.994874,
          35.066592
        ]
      }
    },
    {
      "type": "Feature",
      "properties": {
        "name": "河西会館"
      },
      "geometry": {
        "type": "Point",
        "coordinates": [
          135.989438,
          35.080085
        ]
      }
    },
    {
      "type": "Feature",
      "properties": {
        "name": "守山会館"
      },
      "geometry": {
        "type": "Point",
        "coordinates": [
          135.98685,
          35.050666
        ]
      }
    },
    {
      "type": "Feature",
      "properties": {
        "name": "吉身会館"
      },
      "geometry": {
        "type": "Point",
        "coordinates": [
          135.997315,
          35.057704
        ]
      }
    },
    {
      "type": "Feature",
      "properties": {
        "name": "小津会館"
      },
      "geometry": {
        "type": "Point",
        "coordinates": [
          135.96409,
          35.059909
        ]
      }
    },
    {
      "type": "Feature",
      "properties": {
        "name": "玉津会館"
      },
      "geometry": {
        "type": "Point",
        "coordinates": [
          135.970775,
          35.079264
        ]
      }
    },
    {
      "type": "Feature",
      "properties": {
        "name": "北公民館"
      },
      "geometry": {
        "type": "Point",
        "coordinates": [
          135.971631,
          35.09018
        ]
      }
    },
    {
      "type": "Feature",
      "properties": {
        "name": "中央公民館"
      },
      "geometry": {
        "type": "Point",
        "coordinates": [
          135.979003,
          35.063611
        ]
      }
    },
    {
      "type": "Feature",
      "properties": {
        "name": "栗東市役所"
      },
      "geometry": {
        "type": "Point",
        "coordinates": [
          135.997993,
          35.021614
        ]
      }
    },
    {
      "type": "Feature",
      "properties": {
        "name": "栗東市諸証明サービスコーナー"
      },
      "geometry": {
        "type": "Point",
        "coordinates": [
          135.981931,
          35.037659
        ]
      }
    },
    {
      "type": "Feature",
      "properties": {
        "name": "甲賀市役所水口庁舎"
      },
      "geometry": {
        "type": "Point",
        "coordinates": [
          136.167084,
          34.96612
        ]
      }
    },
    {
      "type": "Feature",
      "properties": {
        "name": "土山支所"
      },
      "geometry": {
        "type": "Point",
        "coordinates": [
          136.283324,
          34.937681
        ]
      }
    },
    {
      "type": "Feature",
      "properties": {
        "name": "甲賀支所"
      },
      "geometry": {
        "type": "Point",
        "coordinates": [
          136.215801,
          34.902788
        ]
      }
    },
    {
      "type": "Feature",
      "properties": {
        "name": "甲南支所"
      },
      "geometry": {
        "type": "Point",
        "coordinates": [
          136.168065,
          34.92796
        ]
      }
    },
    {
      "type": "Feature",
      "properties": {
        "name": "信楽支所"
      },
      "geometry": {
        "type": "Point",
        "coordinates": [
          136.058592,
          34.87801
        ]
      }
    },
    {
      "type": "Feature",
      "properties": {
        "name": "野洲市役所"
      },
      "geometry": {
        "type": "Point",
        "coordinates": [
          136.025873,
          35.06747
        ]
      }
    },
    {
      "type": "Feature",
      "properties": {
        "name": "市民サービスセンター"
      },
      "geometry": {
        "type": "Point",
        "coordinates": [
          136.012191,
          35.10321
        ]
      }
    },
    {
      "type": "Feature",
      "properties": {
        "name": "湖南市役所東庁舎"
      },
      "geometry": {
        "type": "Point",
        "coordinates": [
          136.084693,
          35.004106
        ]
      }
    },
    {
      "type": "Feature",
      "properties": {
        "name": "西庁舎"
      },
      "geometry": {
        "type": "Point",
        "coordinates": [
          136.058862,
          35.010502
        ]
      }
    },
    {
      "type": "Feature",
      "properties": {
        "name": "三雲出張所"
      },
      "geometry": {
        "type": "Point",
        "coordinates": [
          136.10721,
          34.98462
        ]
      }
    },
    {
      "type": "Feature",
      "properties": {
        "name": "柑子袋出張所"
      },
      "geometry": {
        "type": "Point",
        "coordinates": [
          136.070006,
          35.002606
        ]
      }
    },
    {
      "type": "Feature",
      "properties": {
        "name": "岩根出張所"
      },
      "geometry": {
        "type": "Point",
        "coordinates": [
          136.112634,
          35.002332
        ]
      }
    },
    {
      "type": "Feature",
      "properties": {
        "name": "菩提寺出張所"
      },
      "geometry": {
        "type": "Point",
        "coordinates": [
          136.063383,
          35.025766
        ]
      }
    },
    {
      "type": "Feature",
      "properties": {
        "name": "下田出張所"
      },
      "geometry": {
        "type": "Point",
        "coordinates": [
          136.131468,
          35.025432
        ]
      }
    },
    {
      "type": "Feature",
      "properties": {
        "name": "水戸出張所"
      },
      "geometry": {
        "type": "Point",
        "coordinates": [
          136.126084,
          35.013646
        ]
      }
    },
    {
      "type": "Feature",
      "properties": {
        "name": "高島市役所"
      },
      "geometry": {
        "type": "Point",
        "coordinates": [
          136.035785,
          35.353052
        ]
      }
    },
    {
      "type": "Feature",
      "properties": {
        "name": "朽木支所"
      },
      "geometry": {
        "type": "Point",
        "coordinates": [
          135.917481,
          35.354281
        ]
      }
    },
    {
      "type": "Feature",
      "properties": {
        "name": "マキノ支所"
      },
      "geometry": {
        "type": "Point",
        "coordinates": [
          136.039868,
          35.464287
        ]
      }
    },
    {
      "type": "Feature",
      "properties": {
        "name": "安曇川支所"
      },
      "geometry": {
        "type": "Point",
        "coordinates": [
          136.015918,
          35.33149
        ]
      }
    },
    {
      "type": "Feature",
      "properties": {
        "name": "高島支所"
      },
      "geometry": {
        "type": "Point",
        "coordinates": [
          136.012752,
          35.301198
        ]
      }
    },
    {
      "type": "Feature",
      "properties": {
        "name": "今津支所"
      },
      "geometry": {
        "type": "Point",
        "coordinates": [
          136.028581,
          35.407238
        ]
      }
    },
    {
      "type": "Feature",
      "properties": {
        "name": "東近江市役所"
      },
      "geometry": {
        "type": "Point",
        "coordinates": [
          136.20762,
          35.112603
        ]
      }
    },
    {
      "type": "Feature",
      "properties": {
        "name": "永源寺支所"
      },
      "geometry": {
        "type": "Point",
        "coordinates": [
          136.301183,
          35.07815
        ]
      }
    },
    {
      "type": "Feature",
      "properties": {
        "name": "五個荘支所"
      },
      "geometry": {
        "type": "Point",
        "coordinates": [
          136.191714,
          35.153415
        ]
      }
    },
    {
      "type": "Feature",
      "properties": {
        "name": "湖東支所"
      },
      "geometry": {
        "type": "Point",
        "coordinates": [
          136.246192,
          35.1294
        ]
      }
    },
    {
      "type": "Feature",
      "properties": {
        "name": "蒲生支所"
      },
      "geometry": {
        "type": "Point",
        "coordinates": [
          136.181782,
          35.059487
        ]
      }
    },
    {
      "type": "Feature",
      "properties": {
        "name": "愛東支所"
      },
      "geometry": {
        "type": "Point",
        "coordinates": [
          136.262338,
          35.110869
        ]
      }
    },
    {
      "type": "Feature",
      "properties": {
        "name": "能登川支所"
      },
      "geometry": {
        "type": "Point",
        "coordinates": [
          136.162266,
          35.184618
        ]
      }
    },
    {
      "type": "Feature",
      "properties": {
        "name": "政所出張所"
      },
      "geometry": {
        "type": "Point",
        "coordinates": [
          136.371819,
          35.105444
        ]
      }
    },
    {
      "type": "Feature",
      "properties": {
        "name": "米原市役所米原庁舎"
      },
      "geometry": {
        "type": "Point",
        "coordinates": [
          136.284013,
          35.315355
        ]
      }
    },
    {
      "type": "Feature",
      "properties": {
        "name": "山東庁舎"
      },
      "geometry": {
        "type": "Point",
        "coordinates": [
          136.370161,
          35.361568
        ]
      }
    },
    {
      "type": "Feature",
      "properties": {
        "name": "伊吹庁舎"
      },
      "geometry": {
        "type": "Point",
        "coordinates": [
          136.378149,
          35.385968
        ]
      }
    },
    {
      "type": "Feature",
      "properties": {
        "name": "近江庁舎"
      },
      "geometry": {
        "type": "Point",
        "coordinates": [
          136.304125,
          35.337263
        ]
      }
    },
    {
      "type": "Feature",
      "properties": {
        "name": "息郷行政サービスセンター"
      },
      "geometry": {
        "type": "Point",
        "coordinates": [
          136.321826,
          35.320559
        ]
      }
    },
    {
      "type": "Feature",
      "properties": {
        "name": "醒井行政サービスセンター"
      },
      "geometry": {
        "type": "Point",
        "coordinates": [
          136.345307,
          35.327617
        ]
      }
    },
    {
      "type": "Feature",
      "properties": {
        "name": "柏原行政サービスセンター"
      },
      "geometry": {
        "type": "Point",
        "coordinates": [
          136.398823,
          35.341982
        ]
      }
    },
    {
      "type": "Feature",
      "properties": {
        "name": "吉槻行政サービスセンター"
      },
      "geometry": {
        "type": "Point",
        "coordinates": [
          136.356928,
          35.459199
        ]
      }
    },
    {
      "type": "Feature",
      "properties": {
        "name": "日野町役場"
      },
      "geometry": {
        "type": "Point",
        "coordinates": [
          136.246023,
          35.018018
        ]
      }
    },
    {
      "type": "Feature",
      "properties": {
        "name": "竜王町役場"
      },
      "geometry": {
        "type": "Point",
        "coordinates": [
          136.124438,
          35.06075
        ]
      }
    },
    {
      "type": "Feature",
      "properties": {
        "name": "愛荘町役場愛知川庁舎"
      },
      "geometry": {
        "type": "Point",
        "coordinates": [
          136.212306,
          35.168834
        ]
      }
    },
    {
      "type": "Feature",
      "properties": {
        "name": "秦荘庁舎"
      },
      "geometry": {
        "type": "Point",
        "coordinates": [
          136.24487,
          35.174538
        ]
      }
    },
    {
      "type": "Feature",
      "properties": {
        "name": "豊郷町役場"
      },
      "geometry": {
        "type": "Point",
        "coordinates": [
          136.229974,
          35.200382
        ]
      }
    },
    {
      "type": "Feature",
      "properties": {
        "name": "甲良町役場"
      },
      "geometry": {
        "type": "Point",
        "coordinates": [
          136.26135,
          35.204224
        ]
      }
    },
    {
      "type": "Feature",
      "properties": {
        "name": "多賀町役場"
      },
      "geometry": {
        "type": "Point",
        "coordinates": [
          136.292199,
          35.222035
        ]
      }
    },
    {
      "type": "Feature",
      "properties": {
        "name": "川相支所"
      },
      "geometry": {
        "type": "Point",
        "coordinates": [
          136.318253,
          35.190581
        ]
      }
    },
    {
      "type": "Feature",
      "properties": {
        "name": "大津公民館"
      },
      "geometry": {
        "type": "Point",
        "coordinates": [
          135.869742,
          35.009502
        ]
      }
    },
    {
      "type": "Feature",
      "properties": {
        "name": "和邇公民館"
      },
      "geometry": {
        "type": "Point",
        "coordinates": [
          135.921051,
          35.156319
        ]
      }
    },
    {
      "type": "Feature",
      "properties": {
        "name": "小野公民館分館"
      },
      "geometry": {
        "type": "Point",
        "coordinates": [
          135.922507,
          35.139013
        ]
      }
    },
    {
      "type": "Feature",
      "properties": {
        "name": "逢坂公民館"
      },
      "geometry": {
        "type": "Point",
        "coordinates": [
          135.865499,
          35.004375
        ]
      }
    },
    {
      "type": "Feature",
      "properties": {
        "name": "伊香立公民館"
      },
      "geometry": {
        "type": "Point",
        "coordinates": [
          135.872551,
          35.142314
        ]
      }
    },
    {
      "type": "Feature",
      "properties": {
        "name": "下阪本公民館"
      },
      "geometry": {
        "type": "Point",
        "coordinates": [
          135.876235,
          35.062402
        ]
      }
    },
    {
      "type": "Feature",
      "properties": {
        "name": "葛川公民館"
      },
      "geometry": {
        "type": "Point",
        "coordinates": [
          135.866843,
          35.247824
        ]
      }
    },
    {
      "type": "Feature",
      "properties": {
        "name": "仰木の里公民館"
      },
      "geometry": {
        "type": "Point",
        "coordinates": [
          135.894159,
          35.109013
        ]
      }
    },
    {
      "type": "Feature",
      "properties": {
        "name": "仰木公民館"
      },
      "geometry": {
        "type": "Point",
        "coordinates": [
          135.882169,
          35.108129
        ]
      }
    },
    {
      "type": "Feature",
      "properties": {
        "name": "堅田公民館"
      },
      "geometry": {
        "type": "Point",
        "coordinates": [
          135.91477,
          35.114271
        ]
      }
    },
    {
      "type": "Feature",
      "properties": {
        "name": "坂本公民館"
      },
      "geometry": {
        "type": "Point",
        "coordinates": [
          135.870768,
          35.071484
        ]
      }
    },
    {
      "type": "Feature",
      "properties": {
        "name": "山中比叡平公民館"
      },
      "geometry": {
        "type": "Point",
        "coordinates": [
          135.83134,
          35.031291
        ]
      }
    },
    {
      "type": "Feature",
      "properties": {
        "name": "滋賀公民館"
      },
      "geometry": {
        "type": "Point",
        "coordinates": [
          135.857063,
          35.035629
        ]
      }
    },
    {
      "type": "Feature",
      "properties": {
        "name": "小野公民館"
      },
      "geometry": {
        "type": "Point",
        "coordinates": [
          135.922284,
          35.142007
        ]
      }
    },
    {
      "type": "Feature",
      "properties": {
        "name": "上田上公民館"
      },
      "geometry": {
        "type": "Point",
        "coordinates": [
          135.961917,
          34.959576
        ]
      }
    },
    {
      "type": "Feature",
      "properties": {
        "name": "真野公民館"
      },
      "geometry": {
        "type": "Point",
        "coordinates": [
          135.912588,
          35.131572
        ]
      }
    },
    {
      "type": "Feature",
      "properties": {
        "name": "真野北公民館"
      },
      "geometry": {
        "type": "Point",
        "coordinates": [
          135.90885,
          35.141567
        ]
      }
    },
    {
      "type": "Feature",
      "properties": {
        "name": "瀬田公民館"
      },
      "geometry": {
        "type": "Point",
        "coordinates": [
          135.919879,
          34.981434
        ]
      }
    },
    {
      "type": "Feature",
      "properties": {
        "name": "瀬田東公民館"
      },
      "geometry": {
        "type": "Point",
        "coordinates": [
          135.934511,
          34.98489
        ]
      }
    },
    {
      "type": "Feature",
      "properties": {
        "name": "瀬田南公民館"
      },
      "geometry": {
        "type": "Point",
        "coordinates": [
          135.914191,
          34.971291
        ]
      }
    },
    {
      "type": "Feature",
      "properties": {
        "name": "瀬田北公民館"
      },
      "geometry": {
        "type": "Point",
        "coordinates": [
          135.924454,
          34.99136
        ]
      }
    },
    {
      "type": "Feature",
      "properties": {
        "name": "晴嵐公民館"
      },
      "geometry": {
        "type": "Point",
        "coordinates": [
          135.899159,
          34.975804
        ]
      }
    },
    {
      "type": "Feature",
      "properties": {
        "name": "石山公民館"
      },
      "geometry": {
        "type": "Point",
        "coordinates": [
          135.908339,
          34.954098
        ]
      }
    },
    {
      "type": "Feature",
      "properties": {
        "name": "膳所公民館"
      },
      "geometry": {
        "type": "Point",
        "coordinates": [
          135.893663,
          34.994707
        ]
      }
    },
    {
      "type": "Feature",
      "properties": {
        "name": "大石公民館"
      },
      "geometry": {
        "type": "Point",
        "coordinates": [
          135.913066,
          34.910202
        ]
      }
    },
    {
      "type": "Feature",
      "properties": {
        "name": "中央公民館"
      },
      "geometry": {
        "type": "Point",
        "coordinates": [
          135.865498,
          35.008405
        ]
      }
    },
    {
      "type": "Feature",
      "properties": {
        "name": "長等公民館"
      },
      "geometry": {
        "type": "Point",
        "coordinates": [
          135.857871,
          35.014949
        ]
      }
    },
    {
      "type": "Feature",
      "properties": {
        "name": "田上公民館"
      },
      "geometry": {
        "type": "Point",
        "coordinates": [
          135.928864,
          34.938302
        ]
      }
    },
    {
      "type": "Feature",
      "properties": {
        "name": "唐崎公民館"
      },
      "geometry": {
        "type": "Point",
        "coordinates": [
          135.865666,
          35.04851
        ]
      }
    },
    {
      "type": "Feature",
      "properties": {
        "name": "藤尾公民館"
      },
      "geometry": {
        "type": "Point",
        "coordinates": [
          135.832851,
          34.993098
        ]
      }
    },
    {
      "type": "Feature",
      "properties": {
        "name": "南郷公民館"
      },
      "geometry": {
        "type": "Point",
        "coordinates": [
          135.908264,
          34.942357
        ]
      }
    },
    {
      "type": "Feature",
      "properties": {
        "name": "日吉台公民館"
      },
      "geometry": {
        "type": "Point",
        "coordinates": [
          135.878723,
          35.079208
        ]
      }
    },
    {
      "type": "Feature",
      "properties": {
        "name": "富士見公民館"
      },
      "geometry": {
        "type": "Point",
        "coordinates": [
          135.887966,
          34.985555
        ]
      }
    },
    {
      "type": "Feature",
      "properties": {
        "name": "平野公民館"
      },
      "geometry": {
        "type": "Point",
        "coordinates": [
          135.879489,
          35.002981
        ]
      }
    },
    {
      "type": "Feature",
      "properties": {
        "name": "雄琴公民館"
      },
      "geometry": {
        "type": "Point",
        "coordinates": [
          135.895632,
          35.090054
        ]
      }
    },
    {
      "type": "Feature",
      "properties": {
        "name": "勤労福祉センター"
      },
      "geometry": {
        "type": "Point",
        "coordinates": [
          135.875081,
          35.006858
        ]
      }
    },
    {
      "type": "Feature",
      "properties": {
        "name": "坂本市民格技場"
      },
      "geometry": {
        "type": "Point",
        "coordinates": [
          135.871314,
          35.071761
        ]
      }
    },
    {
      "type": "Feature",
      "properties": {
        "name": "市民活動センター"
      },
      "geometry": {
        "type": "Point",
        "coordinates": [
          135.863062,
          35.012349
        ]
      }
    },
    {
      "type": "Feature",
      "properties": {
        "name": "生涯学習センター"
      },
      "geometry": {
        "type": "Point",
        "coordinates": [
          135.893718,
          34.994063
        ]
      }
    },
    {
      "type": "Feature",
      "properties": {
        "name": "石山市民体育館"
      },
      "geometry": {
        "type": "Point",
        "coordinates": [
          135.908666,
          34.956098
        ]
      }
    },
    {
      "type": "Feature",
      "properties": {
        "name": "田上市民体育館"
      },
      "geometry": {
        "type": "Point",
        "coordinates": [
          135.914585,
          34.947038
        ]
      }
    },
    {
      "type": "Feature",
      "properties": {
        "name": "北部地域文化センター"
      },
      "geometry": {
        "type": "Point",
        "coordinates": [
          135.911452,
          35.111963
        ]
      }
    },
    {
      "type": "Feature",
      "properties": {
        "name": "和邇市民体育館"
      },
      "geometry": {
        "type": "Point",
        "coordinates": [
          135.921603,
          35.159155
        ]
      }
    },
    {
      "type": "Feature",
      "properties": {
        "name": "青山公民館"
      },
      "geometry": {
        "type": "Point",
        "coordinates": [
          135.969402,
          34.977411
        ]
      }
    },
    {
      "type": "Feature",
      "properties": {
        "name": "木戸公民館"
      },
      "geometry": {
        "type": "Point",
        "coordinates": [
          135.921096,
          35.206392
        ]
      }
    },
    {
      "type": "Feature",
      "properties": {
        "name": "市民文化会館"
      },
      "geometry": {
        "type": "Point",
        "coordinates": [
          135.852805,
          35.016043
        ]
      }
    },
    {
      "type": "Feature",
      "properties": {
        "name": "滋賀里コミュニティセンター"
      },
      "geometry": {
        "type": "Point",
        "coordinates": [
          135.857979,
          35.043923
        ]
      }
    },
    {
      "type": "Feature",
      "properties": {
        "name": "下龍華会館"
      },
      "geometry": {
        "type": "Point",
        "coordinates": [
          135.893899,
          35.150016
        ]
      }
    },
    {
      "type": "Feature",
      "properties": {
        "name": "皇子が丘市民会館"
      },
      "geometry": {
        "type": "Point",
        "coordinates": [
          135.85356,
          35.025789
        ]
      }
    },
    {
      "type": "Feature",
      "properties": {
        "name": "坂本市民会館、坂本市民体育館"
      },
      "geometry": {
        "type": "Point",
        "coordinates": [
          135.87442,
          35.077183
        ]
      }
    },
    {
      "type": "Feature",
      "properties": {
        "name": "昭和会館"
      },
      "geometry": {
        "type": "Point",
        "coordinates": [
          135.887496,
          34.998237
        ]
      }
    },
    {
      "type": "Feature",
      "properties": {
        "name": "田上会館"
      },
      "geometry": {
        "type": "Point",
        "coordinates": [
          135.914883,
          34.947126
        ]
      }
    },
    {
      "type": "Feature",
      "properties": {
        "name": "南地区公民館"
      },
      "geometry": {
        "type": "Point",
        "coordinates": [
          136.217508,
          35.244884
        ]
      }
    },
    {
      "type": "Feature",
      "properties": {
        "name": "旭森地区公民館"
      },
      "geometry": {
        "type": "Point",
        "coordinates": [
          136.270567,
          35.24957
        ]
      }
    },
    {
      "type": "Feature",
      "properties": {
        "name": "中地区公民館"
      },
      "geometry": {
        "type": "Point",
        "coordinates": [
          136.234845,
          35.265133
        ]
      }
    },
    {
      "type": "Feature",
      "properties": {
        "name": "稲枝地区公民館"
      },
      "geometry": {
        "type": "Point",
        "coordinates": [
          136.180471,
          35.212947
        ]
      }
    },
    {
      "type": "Feature",
      "properties": {
        "name": "西地区公民館"
      },
      "geometry": {
        "type": "Point",
        "coordinates": [
          136.252687,
          35.269492
        ]
      }
    },
    {
      "type": "Feature",
      "properties": {
        "name": "彦根市地域総合センター人権･福祉交流会館"
      },
      "geometry": {
        "type": "Point",
        "coordinates": [
          136.24229,
          35.237506
        ]
      }
    },
    {
      "type": "Feature",
      "properties": {
        "name": "ひこね燦ぱれす"
      },
      "geometry": {
        "type": "Point",
        "coordinates": [
          136.244747,
          35.24848
        ]
      }
    },
    {
      "type": "Feature",
      "properties": {
        "name": "彦根市農村環境改善センター　グリーンピアひこね"
      },
      "geometry": {
        "type": "Point",
        "coordinates": [
          136.212018,
          35.228265
        ]
      }
    },
    {
      "type": "Feature",
      "properties": {
        "name": "地域総合センター東山会館"
      },
      "geometry": {
        "type": "Point",
        "coordinates": [
          136.26945,
          35.267329
        ]
      }
    },
    {
      "type": "Feature",
      "properties": {
        "name": "稲枝地区体育館"
      },
      "geometry": {
        "type": "Point",
        "coordinates": [
          136.180799,
          35.213225
        ]
      }
    },
    {
      "type": "Feature",
      "properties": {
        "name": "高宮地域文化センター"
      },
      "geometry": {
        "type": "Point",
        "coordinates": [
          136.256792,
          35.234857
        ]
      }
    },
    {
      "type": "Feature",
      "properties": {
        "name": "高宮駅コミュニティセンター"
      },
      "geometry": {
        "type": "Point",
        "coordinates": [
          136.2605,
          35.236188
        ]
      }
    },
    {
      "type": "Feature",
      "properties": {
        "name": "市民体育センター"
      },
      "geometry": {
        "type": "Point",
        "coordinates": [
          136.256406,
          35.282907
        ]
      }
    },
    {
      "type": "Feature",
      "properties": {
        "name": "河瀬地区公民館"
      },
      "geometry": {
        "type": "Point",
        "coordinates": [
          136.239868,
          35.228796
        ]
      }
    },
    {
      "type": "Feature",
      "properties": {
        "name": "東地区公民館"
      },
      "geometry": {
        "type": "Point",
        "coordinates": [
          136.261434,
          35.271459
        ]
      }
    },
    {
      "type": "Feature",
      "properties": {
        "name": "鳥居本地区公民館"
      },
      "geometry": {
        "type": "Point",
        "coordinates": [
          136.287264,
          35.280744
        ]
      }
    },
    {
      "type": "Feature",
      "properties": {
        "name": "みずほ文化センター"
      },
      "geometry": {
        "type": "Point",
        "coordinates": [
          136.180357,
          35.213908
        ]
      }
    },
    {
      "type": "Feature",
      "properties": {
        "name": "彦根市民会館"
      },
      "geometry": {
        "type": "Point",
        "coordinates": [
          136.257464,
          35.275191
        ]
      }
    },
    {
      "type": "Feature",
      "properties": {
        "name": "彦根市立図書館"
      },
      "geometry": {
        "type": "Point",
        "coordinates": [
          136.256748,
          35.277966
        ]
      }
    },
    {
      "type": "Feature",
      "properties": {
        "name": "彦根市男女共同参画センター　ウィズ"
      },
      "geometry": {
        "type": "Point",
        "coordinates": [
          136.239489,
          35.255787
        ]
      }
    },
    {
      "type": "Feature",
      "properties": {
        "name": "ひこね市文化プラザ"
      },
      "geometry": {
        "type": "Point",
        "coordinates": [
          136.233095,
          35.255967
        ]
      }
    },
    {
      "type": "Feature",
      "properties": {
        "name": "中老人福祉センター"
      },
      "geometry": {
        "type": "Point",
        "coordinates": [
          136.230779,
          35.259561
        ]
      }
    },
    {
      "type": "Feature",
      "properties": {
        "name": "南老人福祉センター"
      },
      "geometry": {
        "type": "Point",
        "coordinates": [
          136.180428,
          35.213576
        ]
      }
    },
    {
      "type": "Feature",
      "properties": {
        "name": "北老人福祉センター（ハピネスひこね）"
      },
      "geometry": {
        "type": "Point",
        "coordinates": [
          136.248426,
          35.280902
        ]
      }
    },
    {
      "type": "Feature",
      "properties": {
        "name": "高月町南公民館"
      },
      "geometry": {
        "type": "Point",
        "coordinates": [
          136.235202,
          35.468623
        ]
      }
    },
    {
      "type": "Feature",
      "properties": {
        "name": "びわ公民館"
      },
      "geometry": {
        "type": "Point",
        "coordinates": [
          136.232952,
          35.411682
        ]
      }
    },
    {
      "type": "Feature",
      "properties": {
        "name": "下草野公民館"
      },
      "geometry": {
        "type": "Point",
        "coordinates": [
          136.330007,
          35.433968
        ]
      }
    },
    {
      "type": "Feature",
      "properties": {
        "name": "虎姫公民館"
      },
      "geometry": {
        "type": "Point",
        "coordinates": [
          136.260025,
          35.422522
        ]
      }
    },
    {
      "type": "Feature",
      "properties": {
        "name": "公立木之本公民館"
      },
      "geometry": {
        "type": "Point",
        "coordinates": [
          136.222472,
          35.502259
        ]
      }
    },
    {
      "type": "Feature",
      "properties": {
        "name": "高月公民館"
      },
      "geometry": {
        "type": "Point",
        "coordinates": [
          136.235297,
          35.474837
        ]
      }
    },
    {
      "type": "Feature",
      "properties": {
        "name": "七尾公民館"
      },
      "geometry": {
        "type": "Point",
        "coordinates": [
          136.331292,
          35.414876
        ]
      }
    },
    {
      "type": "Feature",
      "properties": {
        "name": "上草野公民館"
      },
      "geometry": {
        "type": "Point",
        "coordinates": [
          136.319882,
          35.462916
        ]
      }
    },
    {
      "type": "Feature",
      "properties": {
        "name": "神照公民館"
      },
      "geometry": {
        "type": "Point",
        "coordinates": [
          136.27456,
          35.398658
        ]
      }
    },
    {
      "type": "Feature",
      "properties": {
        "name": "神田公民館"
      },
      "geometry": {
        "type": "Point",
        "coordinates": [
          136.301625,
          35.359151
        ]
      }
    },
    {
      "type": "Feature",
      "properties": {
        "name": "西黒田公民館"
      },
      "geometry": {
        "type": "Point",
        "coordinates": [
          136.313551,
          35.370095
        ]
      }
    },
    {
      "type": "Feature",
      "properties": {
        "name": "西浅井公民館"
      },
      "geometry": {
        "type": "Point",
        "coordinates": [
          136.123574,
          35.498536
        ]
      }
    },
    {
      "type": "Feature",
      "properties": {
        "name": "浅井公民館"
      },
      "geometry": {
        "type": "Point",
        "coordinates": [
          136.299072,
          35.428479
        ]
      }
    },
    {
      "type": "Feature",
      "properties": {
        "name": "長浜公民館"
      },
      "geometry": {
        "type": "Point",
        "coordinates": [
          136.275492,
          35.380421
        ]
      }
    },
    {
      "type": "Feature",
      "properties": {
        "name": "田根公民館"
      },
      "geometry": {
        "type": "Point",
        "coordinates": [
          136.291328,
          35.454742
        ]
      }
    },
    {
      "type": "Feature",
      "properties": {
        "name": "湯田公民館"
      },
      "geometry": {
        "type": "Point",
        "coordinates": [
          136.295595,
          35.43238
        ]
      }
    },
    {
      "type": "Feature",
      "properties": {
        "name": "南郷里公民館"
      },
      "geometry": {
        "type": "Point",
        "coordinates": [
          136.301155,
          35.389085
        ]
      }
    },
    {
      "type": "Feature",
      "properties": {
        "name": "北郷里公民館"
      },
      "geometry": {
        "type": "Point",
        "coordinates": [
          136.321399,
          35.401269
        ]
      }
    },
    {
      "type": "Feature",
      "properties": {
        "name": "木之本スティック文化ホール"
      },
      "geometry": {
        "type": "Point",
        "coordinates": [
          136.222099,
          35.502734
        ]
      }
    },
    {
      "type": "Feature",
      "properties": {
        "name": "六荘公民館"
      },
      "geometry": {
        "type": "Point",
        "coordinates": [
          136.287154,
          35.371408
        ]
      }
    },
    {
      "type": "Feature",
      "properties": {
        "name": "きのもと交遊館"
      },
      "geometry": {
        "type": "Point",
        "coordinates": [
          136.225889,
          35.50412
        ]
      }
    },
    {
      "type": "Feature",
      "properties": {
        "name": "なつめ会館"
      },
      "geometry": {
        "type": "Point",
        "coordinates": [
          136.311588,
          35.408613
        ]
      }
    },
    {
      "type": "Feature",
      "properties": {
        "name": "びわ文化学習センター「リュートプラザ」"
      },
      "geometry": {
        "type": "Point",
        "coordinates": [
          136.232246,
          35.410971
        ]
      }
    },
    {
      "type": "Feature",
      "properties": {
        "name": "勤労青少年ホーム「長浜サンパレス」"
      },
      "geometry": {
        "type": "Point",
        "coordinates": [
          136.265784,
          35.389985
        ]
      }
    },
    {
      "type": "Feature",
      "properties": {
        "name": "湖北公民館、湖北文化ホール"
      },
      "geometry": {
        "type": "Point",
        "coordinates": [
          136.24331,
          35.446258
        ]
      }
    },
    {
      "type": "Feature",
      "properties": {
        "name": "虎姫コミュニティセンター"
      },
      "geometry": {
        "type": "Point",
        "coordinates": [
          136.252594,
          35.416924
        ]
      }
    },
    {
      "type": "Feature",
      "properties": {
        "name": "虎姫文化ホール"
      },
      "geometry": {
        "type": "Point",
        "coordinates": [
          136.266006,
          35.42209
        ]
      }
    },
    {
      "type": "Feature",
      "properties": {
        "name": "国際文化交流ハウス「GEO」"
      },
      "geometry": {
        "type": "Point",
        "coordinates": [
          136.27292,
          35.396417
        ]
      }
    },
    {
      "type": "Feature",
      "properties": {
        "name": "浅井農村環境改善センター"
      },
      "geometry": {
        "type": "Point",
        "coordinates": [
          136.312067,
          35.433562
        ]
      }
    },
    {
      "type": "Feature",
      "properties": {
        "name": "長浜勤労者総合福祉センター「臨湖」"
      },
      "geometry": {
        "type": "Point",
        "coordinates": [
          136.265181,
          35.373904
        ]
      }
    },
    {
      "type": "Feature",
      "properties": {
        "name": "長浜市民交流センター"
      },
      "geometry": {
        "type": "Point",
        "coordinates": [
          136.278999,
          35.377321
        ]
      }
    },
    {
      "type": "Feature",
      "properties": {
        "name": "長浜文化芸術会館"
      },
      "geometry": {
        "type": "Point",
        "coordinates": [
          136.262207,
          35.374801
        ]
      }
    },
    {
      "type": "Feature",
      "properties": {
        "name": "木之本文化センター"
      },
      "geometry": {
        "type": "Point",
        "coordinates": [
          136.230105,
          35.501219
        ]
      }
    },
    {
      "type": "Feature",
      "properties": {
        "name": "余呉体育館"
      },
      "geometry": {
        "type": "Point",
        "coordinates": [
          136.211143,
          35.53315
        ]
      }
    },
    {
      "type": "Feature",
      "properties": {
        "name": "余呉文化ホール"
      },
      "geometry": {
        "type": "Point",
        "coordinates": [
          136.204082,
          35.542497
        ]
      }
    },
    {
      "type": "Feature",
      "properties": {
        "name": "びわ体育館（びわ体育センター）"
      },
      "geometry": {
        "type": "Point",
        "coordinates": [
          136.208093,
          35.413803
        ]
      }
    },
    {
      "type": "Feature",
      "properties": {
        "name": "湖北体育館"
      },
      "geometry": {
        "type": "Point",
        "coordinates": [
          136.243163,
          35.445017
        ]
      }
    },
    {
      "type": "Feature",
      "properties": {
        "name": "虎姫運動広場体育館"
      },
      "geometry": {
        "type": "Point",
        "coordinates": [
          136.265393,
          35.421774
        ]
      }
    },
    {
      "type": "Feature",
      "properties": {
        "name": "高月運動広場体育館"
      },
      "geometry": {
        "type": "Point",
        "coordinates": [
          136.223286,
          35.470156
        ]
      }
    },
    {
      "type": "Feature",
      "properties": {
        "name": "山本山運動広場体育館"
      },
      "geometry": {
        "type": "Point",
        "coordinates": [
          136.209366,
          35.441807
        ]
      }
    },
    {
      "type": "Feature",
      "properties": {
        "name": "市民体育館"
      },
      "geometry": {
        "type": "Point",
        "coordinates": [
          136.287379,
          35.377615
        ]
      }
    },
    {
      "type": "Feature",
      "properties": {
        "name": "浅井Ｂ＆Ｇ海洋センター体育館"
      },
      "geometry": {
        "type": "Point",
        "coordinates": [
          136.313064,
          35.432648
        ]
      }
    },
    {
      "type": "Feature",
      "properties": {
        "name": "浅井体育館"
      },
      "geometry": {
        "type": "Point",
        "coordinates": [
          136.296272,
          35.432242
        ]
      }
    },
    {
      "type": "Feature",
      "properties": {
        "name": "木之本運動広場体育館"
      },
      "geometry": {
        "type": "Point",
        "coordinates": [
          136.212549,
          35.497471
        ]
      }
    },
    {
      "type": "Feature",
      "properties": {
        "name": "安土町公民館"
      },
      "geometry": {
        "type": "Point",
        "coordinates": [
          136.132594,
          35.145752
        ]
      }
    },
    {
      "type": "Feature",
      "properties": {
        "name": "中央公民館"
      },
      "geometry": {
        "type": "Point",
        "coordinates": [
          136.097846,
          35.128214
        ]
      }
    },
    {
      "type": "Feature",
      "properties": {
        "name": "八幡コミュニティセンター"
      },
      "geometry": {
        "type": "Point",
        "coordinates": [
          136.090857,
          35.135207
        ]
      }
    },
    {
      "type": "Feature",
      "properties": {
        "name": "沖島コミュニティセンター"
      },
      "geometry": {
        "type": "Point",
        "coordinates": [
          136.055793,
          35.200943
        ]
      }
    },
    {
      "type": "Feature",
      "properties": {
        "name": "岡山コミュニティセンター"
      },
      "geometry": {
        "type": "Point",
        "coordinates": [
          136.069573,
          35.132173
        ]
      }
    },
    {
      "type": "Feature",
      "properties": {
        "name": "金田コミュニティセンター"
      },
      "geometry": {
        "type": "Point",
        "coordinates": [
          136.113764,
          35.12411
        ]
      }
    },
    {
      "type": "Feature",
      "properties": {
        "name": "北里コミュニティセンター"
      },
      "geometry": {
        "type": "Point",
        "coordinates": [
          136.050978,
          35.113551
        ]
      }
    },
    {
      "type": "Feature",
      "properties": {
        "name": "桐原コミュニティセンター"
      },
      "geometry": {
        "type": "Point",
        "coordinates": [
          136.0828,
          35.110483
        ]
      }
    },
    {
      "type": "Feature",
      "properties": {
        "name": "島コミュニティセンター"
      },
      "geometry": {
        "type": "Point",
        "coordinates": [
          136.083633,
          35.167964
        ]
      }
    },
    {
      "type": "Feature",
      "properties": {
        "name": "馬淵コミュニティセンター"
      },
      "geometry": {
        "type": "Point",
        "coordinates": [
          136.111363,
          35.102848
        ]
      }
    },
    {
      "type": "Feature",
      "properties": {
        "name": "武佐コミュニティセンター"
      },
      "geometry": {
        "type": "Point",
        "coordinates": [
          136.133708,
          35.118401
        ]
      }
    },
    {
      "type": "Feature",
      "properties": {
        "name": "芦刈会館"
      },
      "geometry": {
        "type": "Point",
        "coordinates": [
          136.128493,
          35.170419
        ]
      }
    },
    {
      "type": "Feature",
      "properties": {
        "name": "福寿会館"
      },
      "geometry": {
        "type": "Point",
        "coordinates": [
          136.134271,
          35.143286
        ]
      }
    },
    {
      "type": "Feature",
      "properties": {
        "name": "石寺楽座会館"
      },
      "geometry": {
        "type": "Point",
        "coordinates": [
          136.162722,
          35.137008
        ]
      }
    },
    {
      "type": "Feature",
      "properties": {
        "name": "上豊浦公民館"
      },
      "geometry": {
        "type": "Point",
        "coordinates": [
          136.1358,
          35.141983
        ]
      }
    },
    {
      "type": "Feature",
      "properties": {
        "name": "小中公民館"
      },
      "geometry": {
        "type": "Point",
        "coordinates": [
          136.134549,
          35.140311
        ]
      }
    },
    {
      "type": "Feature",
      "properties": {
        "name": "大中公民館"
      },
      "geometry": {
        "type": "Point",
        "coordinates": [
          136.12222,
          35.16894
        ]
      }
    },
    {
      "type": "Feature",
      "properties": {
        "name": "東老蘇公民館"
      },
      "geometry": {
        "type": "Point",
        "coordinates": [
          136.162236,
          35.128252
        ]
      }
    },
    {
      "type": "Feature",
      "properties": {
        "name": "内野公民館"
      },
      "geometry": {
        "type": "Point",
        "coordinates": [
          136.162257,
          35.112958
        ]
      }
    },
    {
      "type": "Feature",
      "properties": {
        "name": "新巻町公民館"
      },
      "geometry": {
        "type": "Point",
        "coordinates": [
          136.138604,
          35.077787
        ]
      }
    },
    {
      "type": "Feature",
      "properties": {
        "name": "牧町公民館"
      },
      "geometry": {
        "type": "Point",
        "coordinates": [
          136.057974,
          35.134251
        ]
      }
    },
    {
      "type": "Feature",
      "properties": {
        "name": "宮津自治会館"
      },
      "geometry": {
        "type": "Point",
        "coordinates": [
          136.148699,
          35.143943
        ]
      }
    },
    {
      "type": "Feature",
      "properties": {
        "name": "加茂町自治会館"
      },
      "geometry": {
        "type": "Point",
        "coordinates": [
          136.065856,
          35.124643
        ]
      }
    },
    {
      "type": "Feature",
      "properties": {
        "name": "上野町自治会館"
      },
      "geometry": {
        "type": "Point",
        "coordinates": [
          136.071417,
          35.101901
        ]
      }
    },
    {
      "type": "Feature",
      "properties": {
        "name": "市民共生センター　はつらつ館"
      },
      "geometry": {
        "type": "Point",
        "coordinates": [
          136.087344,
          35.111735
        ]
      }
    },
    {
      "type": "Feature",
      "properties": {
        "name": "大船戸集会所"
      },
      "geometry": {
        "type": "Point",
        "coordinates": [
          136.130547,
          35.150189
        ]
      }
    },
    {
      "type": "Feature",
      "properties": {
        "name": "十七集会所"
      },
      "geometry": {
        "type": "Point",
        "coordinates": [
          136.130676,
          35.147967
        ]
      }
    },
    {
      "type": "Feature",
      "properties": {
        "name": "弁天集会所"
      },
      "geometry": {
        "type": "Point",
        "coordinates": [
          136.129273,
          35.158788
        ]
      }
    },
    {
      "type": "Feature",
      "properties": {
        "name": "香庄集会所"
      },
      "geometry": {
        "type": "Point",
        "coordinates": [
          136.123696,
          35.140143
        ]
      }
    },
    {
      "type": "Feature",
      "properties": {
        "name": "安土ニュータウン集会所"
      },
      "geometry": {
        "type": "Point",
        "coordinates": [
          136.126749,
          35.141096
        ]
      }
    },
    {
      "type": "Feature",
      "properties": {
        "name": "老蘇団地集会所"
      },
      "geometry": {
        "type": "Point",
        "coordinates": [
          136.158405,
          35.127626
        ]
      }
    },
    {
      "type": "Feature",
      "properties": {
        "name": "老蘇ニュータウン集会所"
      },
      "geometry": {
        "type": "Point",
        "coordinates": [
          136.156526,
          35.126563
        ]
      }
    },
    {
      "type": "Feature",
      "properties": {
        "name": "中屋集会所"
      },
      "geometry": {
        "type": "Point",
        "coordinates": [
          136.135858,
          35.13321
        ]
      }
    },
    {
      "type": "Feature",
      "properties": {
        "name": "老蘇台集会所"
      },
      "geometry": {
        "type": "Point",
        "coordinates": [
          136.161103,
          35.127487
        ]
      }
    },
    {
      "type": "Feature",
      "properties": {
        "name": "倉橋部町集会所"
      },
      "geometry": {
        "type": "Point",
        "coordinates": [
          136.124853,
          35.094286
        ]
      }
    },
    {
      "type": "Feature",
      "properties": {
        "name": "野村町集落センター"
      },
      "geometry": {
        "type": "Point",
        "coordinates": [
          136.034718,
          35.125984
        ]
      }
    },
    {
      "type": "Feature",
      "properties": {
        "name": "市民体育館"
      },
      "geometry": {
        "type": "Point",
        "coordinates": [
          136.08963,
          35.137306
        ]
      }
    },
    {
      "type": "Feature",
      "properties": {
        "name": "駅南総合スポーツ施設体育館"
      },
      "geometry": {
        "type": "Point",
        "coordinates": [
          136.107853,
          35.119348
        ]
      }
    },
    {
      "type": "Feature",
      "properties": {
        "name": "運動公園体育館"
      },
      "geometry": {
        "type": "Point",
        "coordinates": [
          136.068223,
          35.150621
        ]
      }
    },
    {
      "type": "Feature",
      "properties": {
        "name": "文化会館"
      },
      "geometry": {
        "type": "Point",
        "coordinates": [
          136.098839,
          35.128806
        ]
      }
    },
    {
      "type": "Feature",
      "properties": {
        "name": "勤労者福祉センター（アクティ近江八幡）"
      },
      "geometry": {
        "type": "Point",
        "coordinates": [
          136.099776,
          35.119615
        ]
      }
    },
    {
      "type": "Feature",
      "properties": {
        "name": "南笠東市民センター"
      },
      "geometry": {
        "type": "Point",
        "coordinates": [
          135.945738,
          34.992064
        ]
      }
    },
    {
      "type": "Feature",
      "properties": {
        "name": "常盤市民センター"
      },
      "geometry": {
        "type": "Point",
        "coordinates": [
          135.94445,
          35.052795
        ]
      }
    },
    {
      "type": "Feature",
      "properties": {
        "name": "志津南市民センター"
      },
      "geometry": {
        "type": "Point",
        "coordinates": [
          135.969841,
          34.985343
        ]
      }
    },
    {
      "type": "Feature",
      "properties": {
        "name": "笠縫東市民センター"
      },
      "geometry": {
        "type": "Point",
        "coordinates": [
          135.950837,
          35.036965
        ]
      }
    },
    {
      "type": "Feature",
      "properties": {
        "name": "笠縫市民センター"
      },
      "geometry": {
        "type": "Point",
        "coordinates": [
          135.946436,
          35.03242
        ]
      }
    },
    {
      "type": "Feature",
      "properties": {
        "name": "渋川市民センター"
      },
      "geometry": {
        "type": "Point",
        "coordinates": [
          135.964696,
          35.030335
        ]
      }
    },
    {
      "type": "Feature",
      "properties": {
        "name": "志津市民センター"
      },
      "geometry": {
        "type": "Point",
        "coordinates": [
          135.974618,
          35.005638
        ]
      }
    },
    {
      "type": "Feature",
      "properties": {
        "name": "草津市民センター"
      },
      "geometry": {
        "type": "Point",
        "coordinates": [
          135.960947,
          35.017867
        ]
      }
    },
    {
      "type": "Feature",
      "properties": {
        "name": "大路市民センター"
      },
      "geometry": {
        "type": "Point",
        "coordinates": [
          135.966969,
          35.020604
        ]
      }
    },
    {
      "type": "Feature",
      "properties": {
        "name": "矢倉市民センター"
      },
      "geometry": {
        "type": "Point",
        "coordinates": [
          135.954573,
          35.005002
        ]
      }
    },
    {
      "type": "Feature",
      "properties": {
        "name": "山田市民センター"
      },
      "geometry": {
        "type": "Point",
        "coordinates": [
          135.931427,
          35.024618
        ]
      }
    },
    {
      "type": "Feature",
      "properties": {
        "name": "玉川市民センター"
      },
      "geometry": {
        "type": "Point",
        "coordinates": [
          135.949296,
          34.99485
        ]
      }
    },
    {
      "type": "Feature",
      "properties": {
        "name": "老上市民センター"
      },
      "geometry": {
        "type": "Point",
        "coordinates": [
          135.937477,
          35.003696
        ]
      }
    },
    {
      "type": "Feature",
      "properties": {
        "name": "総合体育館"
      },
      "geometry": {
        "type": "Point",
        "coordinates": [
          135.936346,
          35.031209
        ]
      }
    },
    {
      "type": "Feature",
      "properties": {
        "name": "ふれあい体育館"
      },
      "geometry": {
        "type": "Point",
        "coordinates": [
          135.95053,
          35.019674
        ]
      }
    },
    {
      "type": "Feature",
      "properties": {
        "name": "草津市立武道館"
      },
      "geometry": {
        "type": "Point",
        "coordinates": [
          135.931994,
          35.024182
        ]
      }
    },
    {
      "type": "Feature",
      "properties": {
        "name": "草津市立農業者トレーニングセンター"
      },
      "geometry": {
        "type": "Point",
        "coordinates": [
          135.930892,
          35.029341
        ]
      }
    },
    {
      "type": "Feature",
      "properties": {
        "name": "野村運動公園市民体育館"
      },
      "geometry": {
        "type": "Point",
        "coordinates": [
          135.952789,
          35.023721
        ]
      }
    },
    {
      "type": "Feature",
      "properties": {
        "name": "常盤東総合センター（ハートアンドライト）"
      },
      "geometry": {
        "type": "Point",
        "coordinates": [
          135.95796,
          35.056973
        ]
      }
    },
    {
      "type": "Feature",
      "properties": {
        "name": "橋岡会館"
      },
      "geometry": {
        "type": "Point",
        "coordinates": [
          135.934919,
          35.012031
        ]
      }
    },
    {
      "type": "Feature",
      "properties": {
        "name": "草津アミカホール"
      },
      "geometry": {
        "type": "Point",
        "coordinates": [
          135.960539,
          35.013711
        ]
      }
    },
    {
      "type": "Feature",
      "properties": {
        "name": "西一会館"
      },
      "geometry": {
        "type": "Point",
        "coordinates": [
          135.954439,
          35.019272
        ]
      }
    },
    {
      "type": "Feature",
      "properties": {
        "name": "草津市立図書館"
      },
      "geometry": {
        "type": "Point",
        "coordinates": [
          135.950937,
          35.019505
        ]
      }
    },
    {
      "type": "Feature",
      "properties": {
        "name": "サンサンホール"
      },
      "geometry": {
        "type": "Point",
        "coordinates": [
          135.967627,
          35.019742
        ]
      }
    },
    {
      "type": "Feature",
      "properties": {
        "name": "新田会館"
      },
      "geometry": {
        "type": "Point",
        "coordinates": [
          135.95147,
          35.021556
        ]
      }
    },
    {
      "type": "Feature",
      "properties": {
        "name": "人権センター"
      },
      "geometry": {
        "type": "Point",
        "coordinates": [
          135.955081,
          35.023498
        ]
      }
    },
    {
      "type": "Feature",
      "properties": {
        "name": "市民交流プラザ"
      },
      "geometry": {
        "type": "Point",
        "coordinates": [
          135.94749,
          35.003091
        ]
      }
    },
    {
      "type": "Feature",
      "properties": {
        "name": "守山市立吉身公民館分館"
      },
      "geometry": {
        "type": "Point",
        "coordinates": [
          135.997691,
          35.057327
        ]
      }
    },
    {
      "type": "Feature",
      "properties": {
        "name": "吉身会館"
      },
      "geometry": {
        "type": "Point",
        "coordinates": [
          135.997315,
          35.057704
        ]
      }
    },
    {
      "type": "Feature",
      "properties": {
        "name": "中洲会館"
      },
      "geometry": {
        "type": "Point",
        "coordinates": [
          135.986185,
          35.109114
        ]
      }
    },
    {
      "type": "Feature",
      "properties": {
        "name": "河西会館"
      },
      "geometry": {
        "type": "Point",
        "coordinates": [
          135.989458,
          35.079756
        ]
      }
    },
    {
      "type": "Feature",
      "properties": {
        "name": "守山会館"
      },
      "geometry": {
        "type": "Point",
        "coordinates": [
          135.98685,
          35.050666
        ]
      }
    },
    {
      "type": "Feature",
      "properties": {
        "name": "中央公民館（市民文化会館・市民ホール）"
      },
      "geometry": {
        "type": "Point",
        "coordinates": [
          135.979003,
          35.063611
        ]
      }
    },
    {
      "type": "Feature",
      "properties": {
        "name": "北公民館"
      },
      "geometry": {
        "type": "Point",
        "coordinates": [
          135.971631,
          35.09018
        ]
      }
    },
    {
      "type": "Feature",
      "properties": {
        "name": "速野会館"
      },
      "geometry": {
        "type": "Point",
        "coordinates": [
          135.958376,
          35.100359
        ]
      }
    },
    {
      "type": "Feature",
      "properties": {
        "name": "玉津会館"
      },
      "geometry": {
        "type": "Point",
        "coordinates": [
          135.970775,
          35.079264
        ]
      }
    },
    {
      "type": "Feature",
      "properties": {
        "name": "小津会館"
      },
      "geometry": {
        "type": "Point",
        "coordinates": [
          135.96409,
          35.059909
        ]
      }
    },
    {
      "type": "Feature",
      "properties": {
        "name": "市民運動公園体育館"
      },
      "geometry": {
        "type": "Point",
        "coordinates": [
          135.978809,
          35.064886
        ]
      }
    },
    {
      "type": "Feature",
      "properties": {
        "name": "農業者トレーニングセンター"
      },
      "geometry": {
        "type": "Point",
        "coordinates": [
          135.977437,
          35.06545
        ]
      }
    },
    {
      "type": "Feature",
      "properties": {
        "name": "守山駅前コミュニティホール"
      },
      "geometry": {
        "type": "Point",
        "coordinates": [
          135.995304,
          35.051166
        ]
      }
    },
    {
      "type": "Feature",
      "properties": {
        "name": "大型児童センター"
      },
      "geometry": {
        "type": "Point",
        "coordinates": [
          135.985472,
          35.06112
        ]
      }
    },
    {
      "type": "Feature",
      "properties": {
        "name": "市民交流センター（さんさん守山）"
      },
      "geometry": {
        "type": "Point",
        "coordinates": [
          135.993735,
          35.059684
        ]
      }
    },
    {
      "type": "Feature",
      "properties": {
        "name": "生涯学習・教育支援センター（エルセンター）"
      },
      "geometry": {
        "type": "Point",
        "coordinates": [
          135.986313,
          35.047877
        ]
      }
    },
    {
      "type": "Feature",
      "properties": {
        "name": "中央公民館"
      },
      "geometry": {
        "type": "Point",
        "coordinates": [
          135.996857,
          35.02207
        ]
      }
    },
    {
      "type": "Feature",
      "properties": {
        "name": "コミュニティセンター治田東"
      },
      "geometry": {
        "type": "Point",
        "coordinates": [
          136.002848,
          35.017676
        ]
      }
    },
    {
      "type": "Feature",
      "properties": {
        "name": "コミュニティセンター金勝"
      },
      "geometry": {
        "type": "Point",
        "coordinates": [
          136.022463,
          34.996951
        ]
      }
    },
    {
      "type": "Feature",
      "properties": {
        "name": "コミュニティセンター葉山"
      },
      "geometry": {
        "type": "Point",
        "coordinates": [
          136.013369,
          35.035515
        ]
      }
    },
    {
      "type": "Feature",
      "properties": {
        "name": "コミュニティセンター治田西"
      },
      "geometry": {
        "type": "Point",
        "coordinates": [
          135.974933,
          35.025059
        ]
      }
    },
    {
      "type": "Feature",
      "properties": {
        "name": "コミュニティセンター治田"
      },
      "geometry": {
        "type": "Point",
        "coordinates": [
          135.983705,
          35.019571
        ]
      }
    },
    {
      "type": "Feature",
      "properties": {
        "name": "コミュニティセンター大宝西"
      },
      "geometry": {
        "type": "Point",
        "coordinates": [
          135.967773,
          35.041929
        ]
      }
    },
    {
      "type": "Feature",
      "properties": {
        "name": "コミュニティセンター葉山東"
      },
      "geometry": {
        "type": "Point",
        "coordinates": [
          136.014892,
          35.02378
        ]
      }
    },
    {
      "type": "Feature",
      "properties": {
        "name": "コミュニティセンター大宝"
      },
      "geometry": {
        "type": "Point",
        "coordinates": [
          135.979311,
          35.039387
        ]
      }
    },
    {
      "type": "Feature",
      "properties": {
        "name": "コミュニティセンター大宝東"
      },
      "geometry": {
        "type": "Point",
        "coordinates": [
          135.981931,
          35.037659
        ]
      }
    },
    {
      "type": "Feature",
      "properties": {
        "name": "ひだまりの家"
      },
      "geometry": {
        "type": "Point",
        "coordinates": [
          135.961952,
          35.047074
        ]
      }
    },
    {
      "type": "Feature",
      "properties": {
        "name": "栗東芸術文化会館さきら"
      },
      "geometry": {
        "type": "Point",
        "coordinates": [
          135.984164,
          35.035781
        ]
      }
    },
    {
      "type": "Feature",
      "properties": {
        "name": "市立図書館"
      },
      "geometry": {
        "type": "Point",
        "coordinates": [
          136.00795,
          35.017362
        ]
      }
    },
    {
      "type": "Feature",
      "properties": {
        "name": "十里体育館"
      },
      "geometry": {
        "type": "Point",
        "coordinates": [
          135.961102,
          35.046491
        ]
      }
    },
    {
      "type": "Feature",
      "properties": {
        "name": "野洲川体育館"
      },
      "geometry": {
        "type": "Point",
        "coordinates": [
          136.011722,
          35.047614
        ]
      }
    },
    {
      "type": "Feature",
      "properties": {
        "name": "治田西スポーツセンター"
      },
      "geometry": {
        "type": "Point",
        "coordinates": [
          135.978612,
          35.026133
        ]
      }
    },
    {
      "type": "Feature",
      "properties": {
        "name": "市民体育館"
      },
      "geometry": {
        "type": "Point",
        "coordinates": [
          135.991627,
          35.016984
        ]
      }
    },
    {
      "type": "Feature",
      "properties": {
        "name": "老人福祉センター"
      },
      "geometry": {
        "type": "Point",
        "coordinates": [
          136.004674,
          35.017802
        ]
      }
    },
    {
      "type": "Feature",
      "properties": {
        "name": "栗東市やすらぎの家"
      },
      "geometry": {
        "type": "Point",
        "coordinates": [
          136.004234,
          35.036461
        ]
      }
    },
    {
      "type": "Feature",
      "properties": {
        "name": "栗東市ゆうあいの家"
      },
      "geometry": {
        "type": "Point",
        "coordinates": [
          135.977364,
          35.027194
        ]
      }
    },
    {
      "type": "Feature",
      "properties": {
        "name": "甲南公民館"
      },
      "geometry": {
        "type": "Point",
        "coordinates": [
          136.170249,
          34.919458
        ]
      }
    },
    {
      "type": "Feature",
      "properties": {
        "name": "朝宮公民館"
      },
      "geometry": {
        "type": "Point",
        "coordinates": [
          135.982027,
          34.852279
        ]
      }
    },
    {
      "type": "Feature",
      "properties": {
        "name": "信楽東公民館"
      },
      "geometry": {
        "type": "Point",
        "coordinates": [
          136.058716,
          34.859221
        ]
      }
    },
    {
      "type": "Feature",
      "properties": {
        "name": "多羅尾公民館"
      },
      "geometry": {
        "type": "Point",
        "coordinates": [
          136.035318,
          34.810752
        ]
      }
    },
    {
      "type": "Feature",
      "properties": {
        "name": "信楽中央公民館"
      },
      "geometry": {
        "type": "Point",
        "coordinates": [
          136.058874,
          34.878402
        ]
      }
    },
    {
      "type": "Feature",
      "properties": {
        "name": "信楽公民館"
      },
      "geometry": {
        "type": "Point",
        "coordinates": [
          136.055355,
          34.882028
        ]
      }
    },
    {
      "type": "Feature",
      "properties": {
        "name": "雲井公民館"
      },
      "geometry": {
        "type": "Point",
        "coordinates": [
          136.082316,
          34.907881
        ]
      }
    },
    {
      "type": "Feature",
      "properties": {
        "name": "伴谷公民館"
      },
      "geometry": {
        "type": "Point",
        "coordinates": [
          136.156311,
          34.997822
        ]
      }
    },
    {
      "type": "Feature",
      "properties": {
        "name": "鮎河公民館"
      },
      "geometry": {
        "type": "Point",
        "coordinates": [
          136.337285,
          34.957103
        ]
      }
    },
    {
      "type": "Feature",
      "properties": {
        "name": "山内公民館"
      },
      "geometry": {
        "type": "Point",
        "coordinates": [
          136.327458,
          34.923661
        ]
      }
    },
    {
      "type": "Feature",
      "properties": {
        "name": "大野公民館"
      },
      "geometry": {
        "type": "Point",
        "coordinates": [
          136.232915,
          34.945997
        ]
      }
    },
    {
      "type": "Feature",
      "properties": {
        "name": "土山中央公民館"
      },
      "geometry": {
        "type": "Point",
        "coordinates": [
          136.281466,
          34.934587
        ]
      }
    },
    {
      "type": "Feature",
      "properties": {
        "name": "甲賀公民館"
      },
      "geometry": {
        "type": "Point",
        "coordinates": [
          136.230882,
          34.901953
        ]
      }
    },
    {
      "type": "Feature",
      "properties": {
        "name": "甲南公民館第三学区分館"
      },
      "geometry": {
        "type": "Point",
        "coordinates": [
          136.179901,
          34.899648
        ]
      }
    },
    {
      "type": "Feature",
      "properties": {
        "name": "希望ヶ丘防災コミュニティセンター"
      },
      "geometry": {
        "type": "Point",
        "coordinates": [
          136.176789,
          34.949314
        ]
      }
    },
    {
      "type": "Feature",
      "properties": {
        "name": "甲南公民館第二学区分館"
      },
      "geometry": {
        "type": "Point",
        "coordinates": [
          136.155888,
          34.922409
        ]
      }
    },
    {
      "type": "Feature",
      "properties": {
        "name": "信楽公民館田代分館"
      },
      "geometry": {
        "type": "Point",
        "coordinates": [
          136.020947,
          34.905052
        ]
      }
    },
    {
      "type": "Feature",
      "properties": {
        "name": "小原公民館"
      },
      "geometry": {
        "type": "Point",
        "coordinates": [
          136.028843,
          34.863271
        ]
      }
    },
    {
      "type": "Feature",
      "properties": {
        "name": "貴生川公民館"
      },
      "geometry": {
        "type": "Point",
        "coordinates": [
          136.151569,
          34.952274
        ]
      }
    },
    {
      "type": "Feature",
      "properties": {
        "name": "岩上公民館、新城教育集会所"
      },
      "geometry": {
        "type": "Point",
        "coordinates": [
          136.195603,
          34.962231
        ]
      }
    },
    {
      "type": "Feature",
      "properties": {
        "name": "柏木公民館"
      },
      "geometry": {
        "type": "Point",
        "coordinates": [
          136.147365,
          34.978353
        ]
      }
    },
    {
      "type": "Feature",
      "properties": {
        "name": "水口中央公民館"
      },
      "geometry": {
        "type": "Point",
        "coordinates": [
          136.166098,
          34.971668
        ]
      }
    },
    {
      "type": "Feature",
      "properties": {
        "name": "甲賀斎苑"
      },
      "geometry": {
        "type": "Point",
        "coordinates": [
          136.186562,
          34.934191
        ]
      }
    },
    {
      "type": "Feature",
      "properties": {
        "name": "甲賀体育館"
      },
      "geometry": {
        "type": "Point",
        "coordinates": [
          136.218345,
          34.903155
        ]
      }
    },
    {
      "type": "Feature",
      "properties": {
        "name": "甲南Ｂ＆Ｇ海洋センター体育館"
      },
      "geometry": {
        "type": "Point",
        "coordinates": [
          136.176484,
          34.93121
        ]
      }
    },
    {
      "type": "Feature",
      "properties": {
        "name": "甲南体育館"
      },
      "geometry": {
        "type": "Point",
        "coordinates": [
          136.173737,
          34.930135
        ]
      }
    },
    {
      "type": "Feature",
      "properties": {
        "name": "信楽体育館"
      },
      "geometry": {
        "type": "Point",
        "coordinates": [
          136.062667,
          34.88221
        ]
      }
    },
    {
      "type": "Feature",
      "properties": {
        "name": "岩上体育館"
      },
      "geometry": {
        "type": "Point",
        "coordinates": [
          136.196229,
          34.962454
        ]
      }
    },
    {
      "type": "Feature",
      "properties": {
        "name": "水口体育館"
      },
      "geometry": {
        "type": "Point",
        "coordinates": [
          136.165453,
          34.971644
        ]
      }
    },
    {
      "type": "Feature",
      "properties": {
        "name": "土山体育館"
      },
      "geometry": {
        "type": "Point",
        "coordinates": [
          136.295503,
          34.931781
        ]
      }
    },
    {
      "type": "Feature",
      "properties": {
        "name": "上野教育集会所"
      },
      "geometry": {
        "type": "Point",
        "coordinates": [
          136.228917,
          34.889112
        ]
      }
    },
    {
      "type": "Feature",
      "properties": {
        "name": "相模教育集会所"
      },
      "geometry": {
        "type": "Point",
        "coordinates": [
          136.216617,
          34.901731
        ]
      }
    },
    {
      "type": "Feature",
      "properties": {
        "name": "大久保教育集会所"
      },
      "geometry": {
        "type": "Point",
        "coordinates": [
          136.23461,
          34.906849
        ]
      }
    },
    {
      "type": "Feature",
      "properties": {
        "name": "大原中教育集会所"
      },
      "geometry": {
        "type": "Point",
        "coordinates": [
          136.218913,
          34.900382
        ]
      }
    },
    {
      "type": "Feature",
      "properties": {
        "name": "かえで会館"
      },
      "geometry": {
        "type": "Point",
        "coordinates": [
          136.157516,
          34.939809
        ]
      }
    },
    {
      "type": "Feature",
      "properties": {
        "name": "西教育集会所"
      },
      "geometry": {
        "type": "Point",
        "coordinates": [
          136.041928,
          34.872031
        ]
      }
    },
    {
      "type": "Feature",
      "properties": {
        "name": "宇川会館"
      },
      "geometry": {
        "type": "Point",
        "coordinates": [
          136.138603,
          34.962606
        ]
      }
    },
    {
      "type": "Feature",
      "properties": {
        "name": "牛飼教育集会所"
      },
      "geometry": {
        "type": "Point",
        "coordinates": [
          136.150838,
          34.949241
        ]
      }
    },
    {
      "type": "Feature",
      "properties": {
        "name": "泉教育集会所"
      },
      "geometry": {
        "type": "Point",
        "coordinates": [
          136.141297,
          34.982359
        ]
      }
    },
    {
      "type": "Feature",
      "properties": {
        "name": "梅田会館"
      },
      "geometry": {
        "type": "Point",
        "coordinates": [
          136.222421,
          34.968063
        ]
      }
    },
    {
      "type": "Feature",
      "properties": {
        "name": "清和会館"
      },
      "geometry": {
        "type": "Point",
        "coordinates": [
          136.280602,
          34.944796
        ]
      }
    },
    {
      "type": "Feature",
      "properties": {
        "name": "甲賀市福祉ホール"
      },
      "geometry": {
        "type": "Point",
        "coordinates": [
          136.168146,
          34.966531
        ]
      }
    },
    {
      "type": "Feature",
      "properties": {
        "name": "甲賀木彩館ホール"
      },
      "geometry": {
        "type": "Point",
        "coordinates": [
          136.251003,
          34.932619
        ]
      }
    },
    {
      "type": "Feature",
      "properties": {
        "name": "甲賀農村環境改善センター"
      },
      "geometry": {
        "type": "Point",
        "coordinates": [
          136.218362,
          34.905962
        ]
      }
    },
    {
      "type": "Feature",
      "properties": {
        "name": "森林文化ホール"
      },
      "geometry": {
        "type": "Point",
        "coordinates": [
          136.280094,
          34.940822
        ]
      }
    },
    {
      "type": "Feature",
      "properties": {
        "name": "あいこうか市民ホール"
      },
      "geometry": {
        "type": "Point",
        "coordinates": [
          136.166642,
          34.967436
        ]
      }
    },
    {
      "type": "Feature",
      "properties": {
        "name": "あいの土山文化ホール"
      },
      "geometry": {
        "type": "Point",
        "coordinates": [
          136.28016,
          34.940227
        ]
      }
    },
    {
      "type": "Feature",
      "properties": {
        "name": "甲賀コミュニティセンター"
      },
      "geometry": {
        "type": "Point",
        "coordinates": [
          136.225773,
          34.909832
        ]
      }
    },
    {
      "type": "Feature",
      "properties": {
        "name": "水口東部コミュニティセンター"
      },
      "geometry": {
        "type": "Point",
        "coordinates": [
          136.17601,
          34.967785
        ]
      }
    },
    {
      "type": "Feature",
      "properties": {
        "name": "水口北部コミュニティセンター"
      },
      "geometry": {
        "type": "Point",
        "coordinates": [
          136.179877,
          34.974699
        ]
      }
    },
    {
      "type": "Feature",
      "properties": {
        "name": "水口中部コミュニティセンター"
      },
      "geometry": {
        "type": "Point",
        "coordinates": [
          136.171162,
          34.971056
        ]
      }
    },
    {
      "type": "Feature",
      "properties": {
        "name": "甲賀市甲賀勤労者福祉センター"
      },
      "geometry": {
        "type": "Point",
        "coordinates": [
          136.216686,
          34.902586
        ]
      }
    },
    {
      "type": "Feature",
      "properties": {
        "name": "勤労青少年ホーム"
      },
      "geometry": {
        "type": "Point",
        "coordinates": [
          136.167117,
          34.959898
        ]
      }
    },
    {
      "type": "Feature",
      "properties": {
        "name": "甲賀農村婦人の家"
      },
      "geometry": {
        "type": "Point",
        "coordinates": [
          136.250483,
          34.906369
        ]
      }
    },
    {
      "type": "Feature",
      "properties": {
        "name": "甲賀中央公園集会所"
      },
      "geometry": {
        "type": "Point",
        "coordinates": [
          136.217425,
          34.904004
        ]
      }
    },
    {
      "type": "Feature",
      "properties": {
        "name": "甲南青少年研修センター"
      },
      "geometry": {
        "type": "Point",
        "coordinates": [
          136.177087,
          34.932761
        ]
      }
    },
    {
      "type": "Feature",
      "properties": {
        "name": "信楽山村開発センター"
      },
      "geometry": {
        "type": "Point",
        "coordinates": [
          136.058592,
          34.87801
        ]
      }
    },
    {
      "type": "Feature",
      "properties": {
        "name": "土山開発センター"
      },
      "geometry": {
        "type": "Point",
        "coordinates": [
          136.283102,
          34.937856
        ]
      }
    },
    {
      "type": "Feature",
      "properties": {
        "name": "中主公民館"
      },
      "geometry": {
        "type": "Point",
        "coordinates": [
          136.01756,
          35.109157
        ]
      }
    },
    {
      "type": "Feature",
      "properties": {
        "name": "コミュニティセンターぎおう"
      },
      "geometry": {
        "type": "Point",
        "coordinates": [
          136.041213,
          35.086479
        ]
      }
    },
    {
      "type": "Feature",
      "properties": {
        "name": "コミュニティセンターみかみ"
      },
      "geometry": {
        "type": "Point",
        "coordinates": [
          136.02725,
          35.051186
        ]
      }
    },
    {
      "type": "Feature",
      "properties": {
        "name": "コミュニティセンターきたの"
      },
      "geometry": {
        "type": "Point",
        "coordinates": [
          136.020389,
          35.077033
        ]
      }
    },
    {
      "type": "Feature",
      "properties": {
        "name": "コミュニティセンターなかさと"
      },
      "geometry": {
        "type": "Point",
        "coordinates": [
          136.011713,
          35.101999
        ]
      }
    },
    {
      "type": "Feature",
      "properties": {
        "name": "コミュニティセンターしのはら"
      },
      "geometry": {
        "type": "Point",
        "coordinates": [
          136.059013,
          35.090435
        ]
      }
    },
    {
      "type": "Feature",
      "properties": {
        "name": "コミュニティセンターひょうず"
      },
      "geometry": {
        "type": "Point",
        "coordinates": [
          136.005269,
          35.111217
        ]
      }
    },
    {
      "type": "Feature",
      "properties": {
        "name": "野洲文化ホール、コミュニティセンターやす"
      },
      "geometry": {
        "type": "Point",
        "coordinates": [
          136.020859,
          35.066826
        ]
      }
    },
    {
      "type": "Feature",
      "properties": {
        "name": "中主公民館別館"
      },
      "geometry": {
        "type": "Point",
        "coordinates": [
          136.009221,
          35.112109
        ]
      }
    },
    {
      "type": "Feature",
      "properties": {
        "name": "なかよし交流館"
      },