{
  "type": "FeatureCollection",
  "features": [
    {
      "type": "Feature",
      "properties": {
        "name": "赤坂今井墳墓"
      },
      "geometry": {
        "type": "Point",
        "coordinates": [
          135.0506226,
          35.64352407
        ]
      }
    },
    {
      "type": "Feature",
      "properties": {
        "name": "天塚古墳"
      },
      "geometry": {
        "type": "Point",
        "coordinates": [
          135.712007,
          35.00701875
        ]
      }
    },
    {
      "type": "Feature",
      "properties": {
        "name": "天橋立"
      },
      "geometry": {
        "type": "Point",
        "coordinates": [
          135.1915589,
          35.56976985
        ]
      }
    },
    {
      "type": "Feature",
      "properties": {
        "name": "嵐山"
      },
      "geometry": {
        "type": "Point",
        "coordinates": [
          135.6675098,
          35.00964174
        ]
      }
    },
    {
      "type": "Feature",
      "properties": {
        "name": "石川丈山墓"
      },
      "geometry": {
        "type": "Point",
        "coordinates": [
          135.7971611,
          35.04006523
        ]
      }
    },
    {
      "type": "Feature",
      "properties": {
        "name": "伊藤仁斎宅（古義堂）跡ならびに書庫"
      },
      "geometry": {
        "type": "Point",
        "coordinates": [
          135.7523871,
          35.02067854
        ]
      }
    },
    {
      "type": "Feature",
      "properties": {
        "name": "岩倉具視幽棲旧宅"
      },
      "geometry": {
        "type": "Point",
        "coordinates": [
          135.7830228,
          35.07836841
        ]
      }
    },
    {
      "type": "Feature",
      "properties": {
        "name": "石清水八幡宮境内"
      },
      "geometry": {
        "type": "Point",
        "coordinates": [
          135.7013113,
          34.87748061
        ]
      }
    },
    {
      "type": "Feature",
      "properties": {
        "name": "宇治川太閤堤跡"
      },
      "geometry": {
        "type": "Point",
        "coordinates": [
          135.8049525,
          34.89617091
        ]
      }
    },
    {
      "type": "Feature",
      "properties": {
        "name": "産土山古墳"
      },
      "geometry": {
        "type": "Point",
        "coordinates": [
          135.1118759,
          35.74141207
        ]
      }
    },
    {
      "type": "Feature",
      "properties": {
        "name": "蛭子山古墳"
      },
      "geometry": {
        "type": "Point",
        "coordinates": [
          135.1046816,
          35.50701005
        ]
      }
    },
    {
      "type": "Feature",
      "properties": {
        "name": "円通寺庭園"
      },
      "geometry": {
        "type": "Point",
        "coordinates": [
          135.7689444,
          35.0645
        ]
      }
    },
    {
      "type": "Feature",
      "properties": {
        "name": "燕庵庭園"
      },
      "geometry": {
        "type": "Point",
        "coordinates": [
          135.755005,
          34.990959
        ]
      }
    },
    {
      "type": "Feature",
      "properties": {
        "name": "大田ノ沢のカキツバタ群落"
      },
      "geometry": {
        "type": "Point",
        "coordinates": [
          135.7585661,
          35.05932172
        ]
      }
    },
    {
      "type": "Feature",
      "properties": {
        "name": "オオミズナギドリ繁殖地"
      },
      "geometry": {
        "type": "Point",
        "coordinates": [
          135.4248119,
          35.68174554
        ]
      }
    },
    {
      "type": "Feature",
      "properties": {
        "name": "大山崎瓦窯跡"
      },
      "geometry": {
        "type": "Point",
        "coordinates": [
          135.6833958,
          34.89636713
        ]
      }
    },
    {
      "type": "Feature",
      "properties": {
        "name": "御土居"
      },
      "geometry": {
        "type": "Point",
        "coordinates": [
          135.7359981,
          35.04597828
        ]
      }
    },
    {
      "type": "Feature",
      "properties": {
        "name": "御室（サクラ）"
      },
      "geometry": {
        "type": "Point",
        "coordinates": [
          135.7133333,
          35.02983333
        ]
      }
    },
    {
      "type": "Feature",
      "properties": {
        "name": "笠置山"
      },
      "geometry": {
        "type": "Point",
        "coordinates": [
          135.9437882,
          34.75665767
        ]
      }
    },
    {
      "type": "Feature",
      "properties": {
        "name": "樫原廃寺跡"
      },
      "geometry": {
        "type": "Point",
        "coordinates": [
          135.6905458,
          34.97045548
        ]
      }
    },
    {
      "type": "Feature",
      "properties": {
        "name": "荷田春満旧宅"
      },
      "geometry": {
        "type": "Point",
        "coordinates": [
          135.7727472,
          34.96682885
        ]
      }
    },
    {
      "type": "Feature",
      "properties": {
        "name": "神雄寺跡"
      },
      "geometry": {
        "type": "Point",
        "coordinates": [
          135.824693,
          34.726281
        ]
      }
    },
    {
      "type": "Feature",
      "properties": {
        "name": "賀茂御祖神社境内"
      },
      "geometry": {
        "type": "Point",
        "coordinates": [
          135.7729056,
          35.03831435
        ]
      }
    },
    {
      "type": "Feature",
      "properties": {
        "name": "賀茂別雷神社境内"
      },
      "geometry": {
        "type": "Point",
        "coordinates": [
          135.7529456,
          35.05992794
        ]
      }
    },
    {
      "type": "Feature",
      "properties": {
        "name": "私市円山古墳"
      },
      "geometry": {
        "type": "Point",
        "coordinates": [
          135.1964368,
          35.31504141
        ]
      }
    },
    {
      "type": "Feature",
      "properties": {
        "name": "旧円徳院庭園"
      },
      "geometry": {
        "type": "Point",
        "coordinates": [
          135.779419,
          35.000481
        ]
      }
    },
    {
      "type": "Feature",
      "properties": {
        "name": "旧二条離宮（二条城）"
      },
      "geometry": {
        "type": "Point",
        "coordinates": [
          135.7469325,
          35.013527
        ]
      }
    },
    {
      "type": "Feature",
      "properties": {
        "name": "教王護国寺境内"
      },
      "geometry": {
        "type": "Point",
        "coordinates": [
          135.747689,
          34.98111243
        ]
      }
    },
    {
      "type": "Feature",
      "properties": {
        "name": "玉鳳院庭園"
      },
      "geometry": {
        "type": "Point",
        "coordinates": [
          135.721645,
          35.02263807
        ]
      }
    },
    {
      "type": "Feature",
      "properties": {
        "name": "清滝川のゲンジボタルおよびその生息地"
      },
      "geometry": {
        "type": "Point",
        "coordinates": [
          135.6582879,
          35.04200501
        ]
      }
    },
    {
      "type": "Feature",
      "properties": {
        "name": "久世廃寺跡"
      },
      "geometry": {
        "type": "Point",
        "coordinates": [
          135.779984,
          34.859779
        ]
      }
    },
    {
      "type": "Feature",
      "properties": {
        "name": "恭仁宮跡（山城国分寺跡）"
      },
      "geometry": {
        "type": "Point",
        "coordinates": [
          135.8622923,
          34.76572542
        ]
      }
    },
    {
      "type": "Feature",
      "properties": {
        "name": "栗栖野瓦窯跡"
      },
      "geometry": {
        "type": "Point",
        "coordinates": [
          135.7729647,
          35.06435794
        ]
      }
    },
    {
      "type": "Feature",
      "properties": {
        "name": "桂春院庭園"
      },
      "geometry": {
        "type": "Point",
        "coordinates": [
          135.7225456,
          35.02458886
        ]
      }
    },
    {
      "type": "Feature",
      "properties": {
        "name": "高山寺境内"
      },
      "geometry": {
        "type": "Point",
        "coordinates": [
          135.6782527,
          35.06005784
        ]
      }
    },
    {
      "type": "Feature",
      "properties": {
        "name": "高台寺庭園"
      },
      "geometry": {
        "type": "Point",
        "coordinates": [
          135.7819595,
          35.00071875
        ]
      }
    },
    {
      "type": "Feature",
      "properties": {
        "name": "郷村断層"
      },
      "geometry": {
        "type": "Point",
        "coordinates": [
          135.0405,
          35.63836111
        ]
      }
    },
    {
      "type": "Feature",
      "properties": {
        "name": "琴引浜"
      },
      "geometry": {
        "type": "Point",
        "coordinates": [
          135.0463265,
          35.70391698
        ]
      }
    },
    {
      "type": "Feature",
      "properties": {
        "name": "孤篷庵庭園"
      },
      "geometry": {
        "type": "Point",
        "coordinates": [
          135.7397246,
          35.04305033
        ]
      }
    },
    {
      "type": "Feature",
      "properties": {
        "name": "高麗寺跡"
      },
      "geometry": {
        "type": "Point",
        "coordinates": [
          135.8257735,
          34.74932839
        ]
      }
    },
    {
      "type": "Feature",
      "properties": {
        "name": "金胎寺境内"
      },
      "geometry": {
        "type": "Point",
        "coordinates": [
          135.9094467,
          34.82991735
        ]
      }
    },
    {
      "type": "Feature",
      "properties": {
        "name": "金地院庭園"
      },
      "geometry": {
        "type": "Point",
        "coordinates": [
          135.7908186,
          35.01003178
        ]
      }
    },
    {
      "type": "Feature",
      "properties": {
        "name": "今日庵（裏千家）庭園"
      },
      "geometry": {
        "type": "Point",
        "coordinates": [
          135.7538295,
          35.03446885
        ]
      }
    },
    {
      "type": "Feature",
      "properties": {
        "name": "西寺跡"
      },
      "geometry": {
        "type": "Point",
        "coordinates": [
          135.7379219,
          34.98065995
        ]
      }
    },
    {
      "type": "Feature",
      "properties": {
        "name": "西芳寺庭園"
      },
      "geometry": {
        "type": "Point",
        "coordinates": [
          135.684316,
          34.99246979
        ]
      }
    },
    {
      "type": "Feature",
      "properties": {
        "name": "慈照寺（銀閣寺）旧境内"
      },
      "geometry": {
        "type": "Point",
        "coordinates": [
          135.7980437,
          35.02665904
        ]
      }
    },
    {
      "type": "Feature",
      "properties": {
        "name": "慈照寺（銀閣寺）庭園"
      },
      "geometry": {
        "type": "Point",
        "coordinates": [
          135.7982582,
          35.02665809
        ]
      }
    },
    {
      "type": "Feature",
      "properties": {
        "name": "詩仙堂"
      },
      "geometry": {
        "type": "Point",
        "coordinates": [
          135.7960837,
          35.04350163
        ]
      }
    },
    {
      "type": "Feature",
      "properties": {
        "name": "芝ヶ原古墳"
      },
      "geometry": {
        "type": "Point",
        "coordinates": [
          135.7836625,
          34.86289591
        ]
      }
    },
    {
      "type": "Feature",
      "properties": {
        "name": "酬恩庵庭園"
      },
      "geometry": {
        "type": "Point",
        "coordinates": [
          135.7578056,
          34.82097222
        ]
      }
    },
    {
      "type": "Feature",
      "properties": {
        "name": "聚光院庭園"
      },
      "geometry": {
        "type": "Point",
        "coordinates": [
          135.7451993,
          35.0438633
        ]
      }
    },
    {
      "type": "Feature",
      "properties": {
        "name": "松花堂及び書院庭園"
      },
      "geometry": {
        "type": "Point",
        "coordinates": [
          135.7076358,
          34.87554694
        ]
      }
    },
    {
      "type": "Feature",
      "properties": {
        "name": "松花堂およびその跡"
      },
      "geometry": {
        "type": "Point",
        "coordinates": [
          135.7013677,
          34.87961133
        ]
      }
    },
    {
      "type": "Feature",
      "properties": {
        "name": "聖護院旧仮皇居"
      },
      "geometry": {
        "type": "Point",
        "coordinates": [
          135.7805849,
          35.01887461
        ]
      }
    },
    {
      "type": "Feature",
      "properties": {
        "name": "成就院庭園"
      },
      "geometry": {
        "type": "Point",
        "coordinates": [
          135.7846344,
          34.996193
        ]
      }
    },
    {
      "type": "Feature",
      "properties": {
        "name": "常照寺の九重ザクラ"
      },
      "geometry": {
        "type": "Point",
        "coordinates": [
          135.687698,
          35.199543
        ]
      }
    },
    {
      "type": "Feature",
      "properties": {
        "name": "渉成園"
      },
      "geometry": {
        "type": "Point",
        "coordinates": [
          135.7631775,
          34.99136163
        ]
      }
    },
    {
      "type": "Feature",
      "properties": {
        "name": "正道官衙遺跡"
      },
      "geometry": {
        "type": "Point",
        "coordinates": [
          135.7843137,
          34.86021309
        ]
      }
    },
    {
      "type": "Feature",
      "properties": {
        "name": "照福寺庭園"
      },
      "geometry": {
        "type": "Point",
        "coordinates": [
          135.314545,
          35.296299
        ]
      }
    },
    {
      "type": "Feature",
      "properties": {
        "name": "浄瑠璃寺庭園"
      },
      "geometry": {
        "type": "Point",
        "coordinates": [
          135.8734248,
          34.71558963
        ]
      }
    },
    {
      "type": "Feature",
      "properties": {
        "name": "青蓮院旧仮御所"
      },
      "geometry": {
        "type": "Point",
        "coordinates": [
          135.7837488,
          35.00732213
        ]
      }
    },
    {
      "type": "Feature",
      "properties": {
        "name": "白米山古墳"
      },
      "geometry": {
        "type": "Point",
        "coordinates": [
          135.1024598,
          35.49598893
        ]
      }
    },
    {
      "type": "Feature",
      "properties": {
        "name": "真珠庵庭園"
      },
      "geometry": {
        "type": "Point",
        "coordinates": [
          135.7466846,
          35.04429798
        ]
      }
    },
    {
      "type": "Feature",
      "properties": {
        "name": "神泉苑"
      },
      "geometry": {
        "type": "Point",
        "coordinates": [
          135.7481591,
          35.01162402
        ]
      }
    },
    {
      "type": "Feature",
      "properties": {
        "name": "神明山古墳"
      },
      "geometry": {
        "type": "Point",
        "coordinates": [
          135.1110955,
          35.73514398
        ]
      }
    },
    {
      "type": "Feature",
      "properties": {
        "name": "随心院境内"
      },
      "geometry": {
        "type": "Point",
        "coordinates": [
          135.8161162,
          34.95921553
        ]
      }
    },
    {
      "type": "Feature",
      "properties": {
        "name": "杉本氏庭園"
      },
      "geometry": {
        "type": "Point",
        "coordinates": [
          135.7557893,
          35.00272722
        ]
      }
    },
    {
      "type": "Feature",
      "properties": {
        "name": "清風荘庭園"
      },
      "geometry": {
        "type": "Point",
        "coordinates": [
          135.7762094,
          35.02920683
        ]
      }
    },
    {
      "type": "Feature",
      "properties": {
        "name": "大覚寺御所跡"
      },
      "geometry": {
        "type": "Point",
        "coordinates": [
          135.6786383,
          35.02817381
        ]
      }
    },
    {
      "type": "Feature",
      "properties": {
        "name": "醍醐寺境内"
      },
      "geometry": {
        "type": "Point",
        "coordinates": [
          135.8182656,
          34.94295926
        ]
      }
    },
    {
      "type": "Feature",
      "properties": {
        "name": "醍醐寺三宝院庭園"
      },
      "geometry": {
        "type": "Point",
        "coordinates": [
          135.8195443,
          34.95190472
        ]
      }
    },
    {
      "type": "Feature",
      "properties": {
        "name": "大仙院書院庭園"
      },
      "geometry": {
        "type": "Point",
        "coordinates": [
          135.7455793,
          35.04483515
        ]
      }
    },
    {
      "type": "Feature",
      "properties": {
        "name": "大仙院庭園"
      },
      "geometry": {
        "type": "Point",
        "coordinates": [
          135.7456019,
          35.044446
        ]
      }
    },
    {
      "type": "Feature",
      "properties": {
        "name": "退蔵院庭園"
      },
      "geometry": {
        "type": "Point",
        "coordinates": [
          135.7190444,
          35.02182756
        ]
      }
    },
    {
      "type": "Feature",
      "properties": {
        "name": "大徳寺境内"
      },
      "geometry": {
        "type": "Point",
        "coordinates": [
          135.7437772,
          35.04354997
        ]
      }
    },
    {
      "type": "Feature",
      "properties": {
        "name": "大徳寺方丈庭園"
      },
      "geometry": {
        "type": "Point",
        "coordinates": [
          135.7462416,
          35.0439901
        ]
      }
    },
    {
      "type": "Feature",
      "properties": {
        "name": "對龍山荘庭園"
      },
      "geometry": {
        "type": "Point",
        "coordinates": [
          135.789881,
          35.01081511
        ]
      }
    },
    {
      "type": "Feature",
      "properties": {
        "name": "高瀬川一之船入"
      },
      "geometry": {
        "type": "Point",
        "coordinates": [
          135.7698303,
          35.01230043
        ]
      }
    },
    {
      "type": "Feature",
      "properties": {
        "name": "丹後国分寺跡"
      },
      "geometry": {
        "type": "Point",
        "coordinates": [
          135.1798084,
          35.57934978
        ]
      }
    },
    {
      "type": "Feature",
      "properties": {
        "name": "知恩院方丈庭園"
      },
      "geometry": {
        "type": "Point",
        "coordinates": [
          135.78445,
          35.00589167
        ]
      }
    },
    {
      "type": "Feature",
      "properties": {
        "name": "智積院庭園"
      },
      "geometry": {
        "type": "Point",
        "coordinates": [
          135.775787,
          34.988846
        ]
      }
    },
    {
      "type": "Feature",
      "properties": {
        "name": "千歳車塚古墳"
      },
      "geometry": {
        "type": "Point",
        "coordinates": [
          135.5707109,
          35.05698296
        ]
      }
    },
    {
      "type": "Feature",
      "properties": {
        "name": "作山古墳"
      },
      "geometry": {
        "type": "Point",
        "coordinates": [
          135.1051297,
          35.50579518
        ]
      }
    },
    {
      "type": "Feature",
      "properties": {
        "name": "椿井大塚山古墳"
      },
      "geometry": {
        "type": "Point",
        "coordinates": [
          135.8177867,
          34.76261389
        ]
      }
    },
    {
      "type": "Feature",
      "properties": {
        "name": "滴翠園"
      },
      "geometry": {
        "type": "Point",
        "coordinates": [
          135.7523207,
          34.99077221
        ]
      }
    },
    {
      "type": "Feature",
      "properties": {
        "name": "天龍寺庭園"
      },
      "geometry": {
        "type": "Point",
        "coordinates": [
          135.6731572,
          35.01576666
        ]
      }
    },
    {
      "type": "Feature",
      "properties": {
        "name": "東海庵書院庭園"
      },
      "geometry": {
        "type": "Point",
        "coordinates": [
          135.7204243,
          35.0227791
        ]
      }
    },
    {
      "type": "Feature",
      "properties": {
        "name": "東福寺本坊庭園"
      },
      "geometry": {
        "type": "Point",
        "coordinates": [
          135.7681803,
          35.01164444
        ]
      }
    },
    {
      "type": "Feature",
      "properties": {
        "name": "鳥羽殿跡"
      },
      "geometry": {
        "type": "Point",
        "coordinates": [
          135.7438314,
          34.94910717
        ]
      }
    },
    {
      "type": "Feature",
      "properties": {
        "name": "長岡宮跡"
      },
      "geometry": {
        "type": "Point",
        "coordinates": [
          135.702828,
          34.94148054
        ]
      }
    },
    {
      "type": "Feature",
      "properties": {
        "name": "雙ヶ岡"
      },
      "geometry": {
        "type": "Point",
        "coordinates": [
          135.7136478,
          35.02106329
        ]
      }
    },
    {
      "type": "Feature",
      "properties": {
        "name": "成相寺旧境内"
      },
      "geometry": {
        "type": "Point",
        "coordinates": [
          135.1908525,
          35.59552569
        ]
      }
    },
    {
      "type": "Feature",
      "properties": {
        "name": "南禅院庭園"
      },
      "geometry": {
        "type": "Point",
        "coordinates": [
          135.7936074,
          35.01002547
        ]
      }
    },
    {
      "type": "Feature",
      "properties": {
        "name": "南禅寺境内"
      },
      "geometry": {
        "type": "Point",
        "coordinates": [
          135.7949932,
          35.01009034
        ]
      }
    },
    {
      "type": "Feature",
      "properties": {
        "name": "南禅寺方丈庭園"
      },
      "geometry": {
        "type": "Point",
        "coordinates": [
          135.79425,
          35.01111111
        ]
      }
    },
    {
      "type": "Feature",
      "properties": {
        "name": "二条城二之丸庭園"
      },
      "geometry": {
        "type": "Point",
        "coordinates": [
          135.7492235,
          35.01350441
        ]
      }
    },
    {
      "type": "Feature",
      "properties": {
        "name": "仁和寺御所跡"
      },
      "geometry": {
        "type": "Point",
        "coordinates": [
          135.7138074,
          35.03046733
        ]
      }
    },
    {
      "type": "Feature",
      "properties": {
        "name": "仁和寺御所庭園"
      },
      "geometry": {
        "type": "Point",
        "coordinates": [
          135.7130278,
          35.02888611
        ]
      }
    },
    {
      "type": "Feature",
      "properties": {
        "name": "白沙村荘庭園"
      },
      "geometry": {
        "type": "Point",
        "coordinates": [
          135.7936695,
          35.02688001
        ]
      }
    },
    {
      "type": "Feature",
      "properties": {
        "name": "函石浜遺物包含地"
      },
      "geometry": {
        "type": "Point",
        "coordinates": [
          134.9408437,
          35.64928034
        ]
      }
    },
    {
      "type": "Feature",
      "properties": {
        "name": "隼上り瓦窯跡"
      },
      "geometry": {
        "type": "Point",
        "coordinates": [
          135.8096419,
          34.90632431
        ]
      }
    },
    {
      "type": "Feature",
      "properties": {
        "name": "稗田野の菫青石仮晶"
      },
      "geometry": {
        "type": "Point",
        "coordinates": [
          135.520233,
          35.027515
        ]
      }
    },
    {
      "type": "Feature",
      "properties": {
        "name": "東山洪積世植物遺体包含層"
      },
      "geometry": {
        "type": "Point",
        "coordinates": [
          135.7790833,
          34.98458333
        ]
      }
    },
    {
      "type": "Feature",
      "properties": {
        "name": "聖塚・菖蒲塚古墳"
      },
      "geometry": {
        "type": "Point",
        "coordinates": [
          135.2715502,
          35.3214767
        ]
      }
    },
    {
      "type": "Feature",
      "properties": {
        "name": "平等院庭園"
      },
      "geometry": {
        "type": "Point",
        "coordinates": [
          135.8082393,
          34.88908184
        ]
      }
    },
    {
      "type": "Feature",
      "properties": {
        "name": "日吉ヶ丘・明石墳墓群"
      },
      "geometry": {
        "type": "Point",
        "coordinates": [
          135.1062903,
          35.51079946
        ]
      }
    },
    {
      "type": "Feature",
      "properties": {
        "name": "平川廃寺跡"
      },
      "geometry": {
        "type": "Point",
        "coordinates": [
          135.7777129,
          34.86262781
        ]
      }
    },
    {
      "type": "Feature",
      "properties": {
        "name": "不審庵（表千家）庭園"
      },
      "geometry": {
        "type": "Point",
        "coordinates": [
          135.753624,
          35.03412379
        ]
      }
    },
    {
      "type": "Feature",
      "properties": {
        "name": "船岡山"
      },
      "geometry": {
        "type": "Point",
        "coordinates": [
          135.7424095,
          35.03922553
        ]
      }
    },
    {
      "type": "Feature",
      "properties": {
        "name": "平安神宮神苑"
      },
      "geometry": {
        "type": "Point",
        "coordinates": [
          135.7824756,
          35.01603829
        ]
      }
    },
    {
      "type": "Feature",
      "properties": {
        "name": "蛇塚古墳"
      },
      "geometry": {
        "type": "Point",
        "coordinates": [
          135.7001523,
          35.01196435
        ]
      }
    },
    {
      "type": "Feature",
      "properties": {
        "name": "方広寺大仏殿跡及び石塁・石塔"
      },
      "geometry": {
        "type": "Point",
        "coordinates": [
          135.7744623,
          34.99094103
        ]
      }
    },
    {
      "type": "Feature",
      "properties": {
        "name": "本願寺境内"
      },
      "geometry": {
        "type": "Point",
        "coordinates": [
          135.7521609,
          34.99214581
        ]
      }
    },
    {
      "type": "Feature",
      "properties": {
        "name": "本願寺大書院庭園"
      },
      "geometry": {
        "type": "Point",
        "coordinates": [
          135.7512675,
          34.99093474
        ]
      }
    },
    {
      "type": "Feature",
      "properties": {
        "name": "本法寺庭園"
      },
      "geometry": {
        "type": "Point",
        "coordinates": [
          135.7528487,
          35.03509667
        ]
      }
    },
    {
      "type": "Feature",
      "properties": {
        "name": "円山公園"
      },
      "geometry": {
        "type": "Point",
        "coordinates": [
          135.780253,
          35.00396029
        ]
      }
    },
    {
      "type": "Feature",
      "properties": {
        "name": "曼殊院書院庭園"
      },
      "geometry": {
        "type": "Point",
        "coordinates": [
          135.8030669,
          35.04878534
        ]
      }
    },
    {
      "type": "Feature",
      "properties": {
        "name": "深泥池生物群集"
      },
      "geometry": {
        "type": "Point",
        "coordinates": [
          135.7700697,
          35.05846906
        ]
      }
    },
    {
      "type": "Feature",
      "properties": {
        "name": "妙心寺境内"
      },
      "geometry": {
        "type": "Point",
        "coordinates": [
          135.7205967,
          35.02374979
        ]
      }
    },
    {
      "type": "Feature",
      "properties": {
        "name": "妙心寺庭園"
      },
      "geometry": {
        "type": "Point",
        "coordinates": [
          135.7201021,
          35.0220741
        ]
      }
    },
    {
      "type": "Feature",
      "properties": {
        "name": "無鄰庵庭園"
      },
      "geometry": {
        "type": "Point",
        "coordinates": [
          135.7871667,
          35.01158333
        ]
      }
    },
    {
      "type": "Feature",
      "properties": {
        "name": "物集女城跡"
      },
      "geometry": {
        "type": "Point",
        "coordinates": [
          135.6955778,
          34.96293889
        ]
      }
    },
    {
      "type": "Feature",
      "properties": {
        "name": "森山遺跡"
      },
      "geometry": {
        "type": "Point",
        "coordinates": [
          135.7908968,
          34.84332094
        ]
      }
    },
    {
      "type": "Feature",
      "properties": {
        "name": "山科本願寺跡及び南殿跡"
      },
      "geometry": {
        "type": "Point",
        "coordinates": [
          135.8122167,
          34.98465646
        ]
      }
    },
    {
      "type": "Feature",
      "properties": {
        "name": "遊龍松"
      },
      "geometry": {
        "type": "Point",
        "coordinates": [
          135.644928,
          34.938427
        ]
      }
    },
    {
      "type": "Feature",
      "properties": {
        "name": "賴山陽書斎（山紫水明処）"
      },
      "geometry": {
        "type": "Point",
        "coordinates": [
          135.7708508,
          35.0181119
        ]
      }
    },
    {
      "type": "Feature",
      "properties": {
        "name": "龍安寺庭園"
      },
      "geometry": {
        "type": "Point",
        "coordinates": [
          135.7186952,
          35.0333862
        ]
      }
    },
    {
      "type": "Feature",
      "properties": {
        "name": "龍安寺方丈庭園"
      },
      "geometry": {
        "type": "Point",
        "coordinates": [
          135.7181664,
          35.03437089
        ]
      }
    },
    {
      "type": "Feature",
      "properties": {
        "name": "琉璃溪"
      },
      "geometry": {
        "type": "Point",
        "coordinates": [
          135.4046095,
          35.0358173
        ]
      }
    },
    {
      "type": "Feature",
      "properties": {
        "name": "霊雲院庭園"
      },
      "geometry": {
        "type": "Point",
        "coordinates": [
          135.7192201,
          35.02304714
        ]
      }
    },
    {
      "type": "Feature",
      "properties": {
        "name": "霊洞院庭園"
      },
      "geometry": {
        "type": "Point",
        "coordinates": [
          135.7754034,
          34.99926529
        ]
      }
    },
    {
      "type": "Feature",
      "properties": {
        "name": "鹿苑寺（金閣寺）庭園"
      },
      "geometry": {
        "type": "Point",
        "coordinates": [
          135.7286091,
          35.03965336
        ]
      }
    },
    {
      "type": "Feature",
      "properties": {
        "name": "大安寺旧境内附石橋瓦窯跡"
      },
      "geometry": {
        "type": "Point",
        "coordinates": [
          135.815582,
          34.800091
        ]
      }
    },
    {
      "type": "Feature",
      "properties": {
        "name": "愛宕神社本殿"
      },
      "geometry": {
        "type": "Point",
        "coordinates": [
          135.58701,
          35.04093223
        ]
      }
    },
    {
      "type": "Feature",
      "properties": {
        "name": "荒見神社本殿"
      },
      "geometry": {
        "type": "Point",
        "coordinates": [
          135.7840731,
          34.84096835
        ]
      }
    },
    {
      "type": "Feature",
      "properties": {
        "name": "安養寺宝塔"
      },
      "geometry": {
        "type": "Point",
        "coordinates": [
          135.7842601,
          35.00375699
        ]
      }
    },
    {
      "type": "Feature",
      "properties": {
        "name": "安楽寿院五輪塔"
      },
      "geometry": {
        "type": "Point",
        "coordinates": [
          135.7538327,
          34.95329328
        ]
      }
    },
    {
      "type": "Feature",
      "properties": {
        "name": "為因寺宝篋印塔"
      },
      "geometry": {
        "type": "Point",
        "coordinates": [
          135.6813407,
          35.04725433
        ]
      }
    },
    {
      "type": "Feature",
      "properties": {
        "name": "伊佐家住宅（京都府八幡市上津屋）"
      },
      "geometry": {
        "type": "Point",
        "coordinates": [
          135.7465567,
          34.86473691
        ]
      }
    },
    {
      "type": "Feature",
      "properties": {
        "name": "伊佐家住宅（京都府八幡市上津屋）"
      },
      "geometry": {
        "type": "Point",
        "coordinates": [
          135.7466439,
          34.8648971
        ]
      }
    },
    {
      "type": "Feature",
      "properties": {
        "name": "伊佐家住宅（京都府八幡市上津屋）"
      },
      "geometry": {
        "type": "Point",
        "coordinates": [
          135.7466479,
          34.86499038
        ]
      }
    },
    {
      "type": "Feature",
      "properties": {
        "name": "伊佐家住宅（京都府八幡市上津屋）"
      },
      "geometry": {
        "type": "Point",
        "coordinates": [
          135.7464614,
          34.86508568
        ]
      }
    },
    {
      "type": "Feature",
      "properties": {
        "name": "伊佐家住宅（京都府八幡市上津屋）"
      },
      "geometry": {
        "type": "Point",
        "coordinates": [
          135.7466418,
          34.86509582
        ]
      }
    },
    {
      "type": "Feature",
      "properties": {
        "name": "石田家住宅（京都府北桑田郡美山町）"
      },
      "geometry": {
        "type": "Point",
        "coordinates": [
          135.4752303,
          35.27502525
        ]
      }
    },
    {
      "type": "Feature",
      "properties": {
        "name": "石田神社境内社恵比須神社本殿"
      },
      "geometry": {
        "type": "Point",
        "coordinates": [
          135.3113126,
          35.34027524
        ]
      }
    },
    {
      "type": "Feature",
      "properties": {
        "name": "出雲大神宮本殿"
      },
      "geometry": {
        "type": "Point",
        "coordinates": [
          135.5784167,
          35.05943914
        ]
      }
    },
    {
      "type": "Feature",
      "properties": {
        "name": "齋神社本殿"
      },
      "geometry": {
        "type": "Point",
        "coordinates": [
          135.3098194,
          35.29003333
        ]
      }
    },
    {
      "type": "Feature",
      "properties": {
        "name": "石清水八幡宮"
      },
      "geometry": {
        "type": "Point",
        "coordinates": [
          135.699725,
          34.87964763
        ]
      }
    },
    {
      "type": "Feature",
      "properties": {
        "name": "石清水八幡宮"
      },
      "geometry": {
        "type": "Point",
        "coordinates": [
          135.7004819,
          34.87975876
        ]
      }
    },
    {
      "type": "Feature",
      "properties": {
        "name": "石清水八幡宮"
      },
      "geometry": {
        "type": "Point",
        "coordinates": [
          135.7004449,
          34.87990199
        ]
      }
    },
    {
      "type": "Feature",
      "properties": {
        "name": "石清水八幡宮"
      },
      "geometry": {
        "type": "Point",
        "coordinates": [
          135.6998349,
          34.87994891
        ]
      }
    },
    {
      "type": "Feature",
      "properties": {
        "name": "石清水八幡宮"
      },
      "geometry": {
        "type": "Point",
        "coordinates": [
          135.7000182,
          34.87999172
        ]
      }
    },
    {
      "type": "Feature",
      "properties": {
        "name": "石清水八幡宮"
      },
      "geometry": {
        "type": "Point",
        "coordinates": [
          135.7003784,
          34.88000389
        ]
      }
    },
    {
      "type": "Feature",
      "properties": {
        "name": "石清水八幡宮"
      },
      "geometry": {
        "type": "Point",
        "coordinates": [
          135.700252,
          34.88002379
        ]
      }
    },
    {
      "type": "Feature",
      "properties": {
        "name": "石清水八幡宮"
      },
      "geometry": {
        "type": "Point",
        "coordinates": [
          135.6895962,
          34.8818181
        ]
      }
    },
    {
      "type": "Feature",
      "properties": {
        "name": "石清水八幡宮五輪塔"
      },
      "geometry": {
        "type": "Point",
        "coordinates": [
          135.701029,
          34.88278888
        ]
      }
    },
    {
      "type": "Feature",
      "properties": {
        "name": "石清水八幡宮本社"
      },
      "geometry": {
        "type": "Point",
        "coordinates": [
          135.7000494,
          34.87949144
        ]
      }
    },
    {
      "type": "Feature",
      "properties": {
        "name": "石清水八幡宮本社"
      },
      "geometry": {
        "type": "Point",
        "coordinates": [
          135.6998776,
          34.87949475
        ]
      }
    },
    {
      "type": "Feature",
      "properties": {
        "name": "石清水八幡宮本社"
      },
      "geometry": {
        "type": "Point",
        "coordinates": [
          135.7002411,
          34.87949971
        ]
      }
    },
    {
      "type": "Feature",
      "properties": {
        "name": "石清水八幡宮本社"
      },
      "geometry": {
        "type": "Point",
        "coordinates": [
          135.7000478,
          34.87959222
        ]
      }
    },
    {
      "type": "Feature",
      "properties": {
        "name": "石清水八幡宮本社"
      },
      "geometry": {
        "type": "Point",
        "coordinates": [
          135.6998462,
          34.879655
        ]
      }
    },
    {
      "type": "Feature",
      "properties": {
        "name": "石清水八幡宮本社"
      },
      "geometry": {
        "type": "Point",
        "coordinates": [
          135.7002427,
          34.87968144
        ]
      }
    },
    {
      "type": "Feature",
      "properties": {
        "name": "石清水八幡宮本社"
      },
      "geometry": {
        "type": "Point",
        "coordinates": [
          135.7000392,
          34.87974606
        ]
      }
    },
    {
      "type": "Feature",
      "properties": {
        "name": "石清水八幡宮本社"
      },
      "geometry": {
        "type": "Point",
        "coordinates": [
          135.700028,
          34.8798483
        ]
      }
    },
    {
      "type": "Feature",
      "properties": {
        "name": "石清水八幡宮本社"
      },
      "geometry": {
        "type": "Point",
        "coordinates": [
          135.7006639,
          34.88004194
        ]
      }
    },
    {
      "type": "Feature",
      "properties": {
        "name": "石清水八幡宮本社"
      },
      "geometry": {
        "type": "Point",
        "coordinates": [
          135.7006639,
          34.88004194
        ]
      }
    },
    {
      "type": "Feature",
      "properties": {
        "name": "引接寺塔婆"
      },
      "geometry": {
        "type": "Point",
        "coordinates": [
          135.7403759,
          35.03526847
        ]
      }
    },
    {
      "type": "Feature",
      "properties": {
        "name": "浮島十三重塔"
      },
      "geometry": {
        "type": "Point",
        "coordinates": [
          135.8101783,
          34.88830472
        ]
      }
    },
    {
      "type": "Feature",
      "properties": {
        "name": "宇治上神社摂社春日神社本殿"
      },
      "geometry": {
        "type": "Point",
        "coordinates": [
          135.8115587,
          34.89200261
        ]
      }
    },
    {
      "type": "Feature",
      "properties": {
        "name": "宇治上神社拝殿"
      },
      "geometry": {
        "type": "Point",
        "coordinates": [
          135.811307,
          34.89197576
        ]
      }
    },
    {
      "type": "Feature",
      "properties": {
        "name": "宇治上神社本殿"
      },
      "geometry": {
        "type": "Point",
        "coordinates": [
          135.8114202,
          34.89207517
        ]
      }
    },
    {
      "type": "Feature",
      "properties": {
        "name": "宇治神社本殿"
      },
      "geometry": {
        "type": "Point",
        "coordinates": [
          135.8107284,
          34.8910776
        ]
      }
    },
    {
      "type": "Feature",
      "properties": {
        "name": "梅小路機関車庫"
      },
      "geometry": {
        "type": "Point",
        "coordinates": [
          135.7428493,
          34.98696969
        ]
      }
    },
    {
      "type": "Feature",
      "properties": {
        "name": "梅田神社本殿"
      },
      "geometry": {
        "type": "Point",
        "coordinates": [
          135.5567361,
          35.08495662
        ]
      }
    },
    {
      "type": "Feature",
      "properties": {
        "name": "裏千家住宅（京都府京都市上京区小川通寺之内上る本法寺前町）"
      },
      "geometry": {
        "type": "Point",
        "coordinates": [
          135.7536557,
          35.03462606
        ]
      }
    },
    {
      "type": "Feature",
      "properties": {
        "name": "雲竜院本堂"
      },
      "geometry": {
        "type": "Point",
        "coordinates": [
          135.7800982,
          34.97717099
        ]
      }
    },
    {
      "type": "Feature",
      "properties": {
        "name": "燕庵"
      },
      "geometry": {
        "type": "Point",
        "coordinates": [
          135.7548775,
          34.99096433
        ]
      }
    },
    {
      "type": "Feature",
      "properties": {
        "name": "縁城寺宝篋印塔"
      },
      "geometry": {
        "type": "Point",
        "coordinates": [
          135.0688666,
          35.65927807
        ]
      }
    },
    {
      "type": "Feature",
      "properties": {
        "name": "延福寺十三重塔"
      },
      "geometry": {
        "type": "Point",
        "coordinates": [
          135.479718,
          35.00849634
        ]
      }
    },
    {
      "type": "Feature",
      "properties": {
        "name": "往生極楽院阿弥陀堂"
      },
      "geometry": {
        "type": "Point",
        "coordinates": [
          135.8347325,
          35.11938685
        ]
      }
    },
    {
      "type": "Feature",
      "properties": {
        "name": "黄梅院"
      },
      "geometry": {
        "type": "Point",
        "coordinates": [
          135.7461939,
          35.04174144
        ]
      }
    },
    {
      "type": "Feature",
      "properties": {
        "name": "黄梅院"
      },
      "geometry": {
        "type": "Point",
        "coordinates": [
          135.746091,
          35.0417635
        ]
      }
    },
    {
      "type": "Feature",
      "properties": {
        "name": "大山祗神社本殿"
      },
      "geometry": {
        "type": "Point",
        "coordinates": [
          135.4063999,
          35.05464583
        ]
      }
    },
    {
      "type": "Feature",
      "properties": {
        "name": "旧岡花家住宅（旧所在　京都府船井郡瑞穂町）"
      },
      "geometry": {
        "type": "Point",
        "coordinates": [
          135.2615507,
          35.29544577
        ]
      }
    },
    {
      "type": "Feature",
      "properties": {
        "name": "小川家住宅（京都府京都市中京区大宮通御池下る）"
      },
      "geometry": {
        "type": "Point",
        "coordinates": [
          135.7487003,
          35.01028042
        ]
      }
    },
    {
      "type": "Feature",
      "properties": {
        "name": "小川家住宅（京都府京都市中京区大宮通御池下る）"
      },
      "geometry": {
        "type": "Point",
        "coordinates": [
          135.74838,
          35.01029721
        ]
      }
    },
    {
      "type": "Feature",
      "properties": {
        "name": "小川家住宅（京都府京都市中京区大宮通御池下る）"
      },
      "geometry": {
        "type": "Point",
        "coordinates": [
          135.7484199,
          35.01046788
        ]
      }
    },
    {
      "type": "Feature",
      "properties": {
        "name": "愛宕念仏寺本堂"
      },
      "geometry": {
        "type": "Point",
        "coordinates": [
          135.6610913,
          35.03135275
        ]
      }
    },
    {
      "type": "Feature",
      "properties": {
        "name": "表千家祖堂"
      },
      "geometry": {
        "type": "Point",
        "coordinates": [
          135.753862,
          35.03406976
        ]
      }
    },
    {
      "type": "Feature",
      "properties": {
        "name": "海住山寺五重塔"
      },
      "geometry": {
        "type": "Point",
        "coordinates": [
          135.8620456,
          34.77663699
        ]
      }
    },
    {
      "type": "Feature",
      "properties": {
        "name": "海住山寺文殊堂"
      },
      "geometry": {
        "type": "Point",
        "coordinates": [
          135.8620456,
          34.77663699
        ]
      }
    },
    {
      "type": "Feature",
      "properties": {
        "name": "覚勝院宝篋印塔"
      },
      "geometry": {
        "type": "Point",
        "coordinates": [
          135.6746329,
          35.024357
        ]
      }
    },
    {
      "type": "Feature",
      "properties": {
        "name": "笠置寺十三重塔"
      },
      "geometry": {
        "type": "Point",
        "coordinates": [
          135.9427392,
          34.75411124
        ]
      }
    },
    {
      "type": "Feature",
      "properties": {
        "name": "春日神社本殿"
      },
      "geometry": {
        "type": "Point",
        "coordinates": [
          135.7936861,
          34.78165833
        ]
      }
    },
    {
      "type": "Feature",
      "properties": {
        "name": "春日神社本殿"
      },
      "geometry": {
        "type": "Point",
        "coordinates": [
          135.5001,
          35.12424444
        ]
      }
    },
    {
      "type": "Feature",
      "properties": {
        "name": "賀茂御祖神社"
      },
      "geometry": {
        "type": "Point",
        "coordinates": [
          135.7730868,
          35.03916087
        ]
      }
    },
    {
      "type": "Feature",
      "properties": {
        "name": "賀茂御祖神社"
      },
      "geometry": {
        "type": "Point",
        "coordinates": [
          135.7729462,
          35.03917025
        ]
      }
    },
    {
      "type": "Feature",
      "properties": {
        "name": "賀茂御祖神社"
      },
      "geometry": {
        "type": "Point",
        "coordinates": [
          135.7731826,
          35.03850768
        ]
      }
    },
    {
      "type": "Feature",
      "properties": {
        "name": "賀茂御祖神社"
      },
      "geometry": {
        "type": "Point",
        "coordinates": [
          135.7729684,
          35.03852434
        ]
      }
    },
    {
      "type": "Feature",
      "properties": {
        "name": "賀茂御祖神社"
      },
      "geometry": {
        "type": "Point",
        "coordinates": [
          135.7727305,
          35.03853862
        ]
      }
    },
    {
      "type": "Feature",
      "properties": {
        "name": "賀茂御祖神社"
      },
      "geometry": {
        "type": "Point",
        "coordinates": [
          135.7732516,
          35.03863618
        ]
      }
    },
    {
      "type": "Feature",
      "properties": {
        "name": "賀茂御祖神社"
      },
      "geometry": {
        "type": "Point",
        "coordinates": [
          135.7724402,
          35.03866711
        ]
      }
    },
    {
      "type": "Feature",
      "properties": {
        "name": "賀茂御祖神社"
      },
      "geometry": {
        "type": "Point",
        "coordinates": [
          135.7734205,
          35.03870042
        ]
      }
    },
    {
      "type": "Feature",
      "properties": {
        "name": "賀茂御祖神社"
      },
      "geometry": {
        "type": "Point",
        "coordinates": [
          135.7729762,
          35.0387259
        ]
      }
    },
    {
      "type": "Feature",
      "properties": {
        "name": "賀茂御祖神社"
      },
      "geometry": {
        "type": "Point",
        "coordinates": [
          135.7727193,
          35.03873903
        ]
      }
    },
    {
      "type": "Feature",
      "properties": {
        "name": "賀茂御祖神社"
      },
      "geometry": {
        "type": "Point",
        "coordinates": [
          135.7724211,
          35.0387956
        ]
      }
    },
    {
      "type": "Feature",
      "properties": {
        "name": "賀茂御祖神社"
      },
      "geometry": {
        "type": "Point",
        "coordinates": [
          135.7732161,
          35.03888527
        ]
      }
    },
    {
      "type": "Feature",
      "properties": {
        "name": "賀茂御祖神社"
      },
      "geometry": {
        "type": "Point",
        "coordinates": [
          135.7730699,
          35.03889839
        ]
      }
    },
    {
      "type": "Feature",
      "properties": {
        "name": "賀茂御祖神社"
      },
      "geometry": {
        "type": "Point",
        "coordinates": [
          135.7728543,
          35.03890027
        ]
      }
    },
    {
      "type": "Feature",
      "properties": {
        "name": "賀茂御祖神社"
      },
      "geometry": {
        "type": "Point",
        "coordinates": [
          135.7729162,
          35.03890589
        ]
      }
    },
    {
      "type": "Feature",
      "properties": {
        "name": "賀茂御祖神社"
      },
      "geometry": {
        "type": "Point",
        "coordinates": [
          135.7729968,
          35.03890589
        ]
      }
    },
    {
      "type": "Feature",
      "properties": {
        "name": "賀茂御祖神社"
      },
      "geometry": {
        "type": "Point",
        "coordinates": [
          135.7726543,
          35.03891219
        ]
      }
    },
    {
      "type": "Feature",
      "properties": {
        "name": "賀茂御祖神社"
      },
      "geometry": {
        "type": "Point",
        "coordinates": [
          135.772464,
          35.03892409
        ]
      }
    },
    {
      "type": "Feature",
      "properties": {
        "name": "賀茂御祖神社"
      },
      "geometry": {
        "type": "Point",
        "coordinates": [
          135.7727455,
          35.03893026
        ]
      }
    },
    {
      "type": "Feature",
      "properties": {
        "name": "賀茂御祖神社"
      },
      "geometry": {
        "type": "Point",
        "coordinates": [
          135.7725853,
          35.03893361
        ]
      }
    },
    {
      "type": "Feature",
      "properties": {
        "name": "賀茂御祖神社"
      },
      "geometry": {
        "type": "Point",
        "coordinates": [
          135.7726949,
          35.03899026
        ]
      }
    },
    {
      "type": "Feature",
      "properties": {
        "name": "賀茂御祖神社"
      },
      "geometry": {
        "type": "Point",
        "coordinates": [
          135.7725877,
          35.03900975
        ]
      }
    },
    {
      "type": "Feature",
      "properties": {
        "name": "賀茂御祖神社"
      },
      "geometry": {
        "type": "Point",
        "coordinates": [
          135.7731355,
          35.03901088
        ]
      }
    },
    {
      "type": "Feature",
      "properties": {
        "name": "賀茂御祖神社"
      },
      "geometry": {
        "type": "Point",
        "coordinates": [
          135.7728355,
          35.03903151
        ]
      }
    },
    {
      "type": "Feature",
      "properties": {
        "name": "賀茂御祖神社"
      },
      "geometry": {
        "type": "Point",
        "coordinates": [
          135.7732068,
          35.03903713
        ]
      }
    },
    {
      "type": "Feature",
      "properties": {
        "name": "賀茂御祖神社"
      },
      "geometry": {
        "type": "Point",
        "coordinates": [
          135.7730024,
          35.03903901
        ]
      }
    },
    {
      "type": "Feature",
      "properties": {
        "name": "賀茂御祖神社"
      },
      "geometry": {
        "type": "Point",
        "coordinates": [
          135.7727324,
          35.03906151
        ]
      }
    },
    {
      "type": "Feature",
      "properties": {
        "name": "賀茂御祖神社"
      },
      "geometry": {
        "type": "Point",
        "coordinates": [
          135.7730099,
          35.039099
        ]
      }
    },
    {
      "type": "Feature",
      "properties": {
        "name": "賀茂御祖神社"
      },
      "geometry": {
        "type": "Point",
        "coordinates": [
          135.7722379,
          35.03911445
        ]
      }
    },
    {
      "type": "Feature",
      "properties": {
        "name": "賀茂御祖神社"
      },
      "geometry": {
        "type": "Point",
        "coordinates": [
          135.7726567,
          35.03911683
        ]
      }
    },
    {
      "type": "Feature",
      "properties": {
        "name": "賀茂御祖神社"
      },
      "geometry": {
        "type": "Point",
        "coordinates": [
          135.7725996,
          35.03912159
        ]
      }
    },
    {
      "type": "Feature",
      "properties": {
        "name": "賀茂御祖神社"
      },
      "geometry": {
        "type": "Point",
        "coordinates": [
          135.7725425,
          35.03912396
        ]
      }
    },
    {
      "type": "Feature",
      "properties": {
        "name": "賀茂御祖神社"
      },
      "geometry": {
        "type": "Point",
        "coordinates": [
          135.7727849,
          35.03922274
        ]
      }
    },
    {
      "type": "Feature",
      "properties": {
        "name": "賀茂別雷神社"
      },
      "geometry": {
        "type": "Point",
        "coordinates": [
          135.7526414,
          35.06049313
        ]
      }
    },
    {
      "type": "Feature",
      "properties": {
        "name": "賀茂別雷神社"
      },
      "geometry": {
        "type": "Point",
        "coordinates": [
          135.7527285,
          35.06051835
        ]
      }
    },
    {
      "type": "Feature",
      "properties": {
        "name": "賀茂別雷神社"
      },
      "geometry": {
        "type": "Point",
        "coordinates": [
          135.7534025,
          35.05902601
        ]
      }
    },
    {
      "type": "Feature",
      "properties": {
        "name": "賀茂別雷神社"
      },
      "geometry": {
        "type": "Point",
        "coordinates": [
          135.7527171,
          35.05912
        ]
      }
    },
    {
      "type": "Feature",
      "properties": {
        "name": "賀茂別雷神社"
      },
      "geometry": {
        "type": "Point",
        "coordinates": [
          135.7526185,
          35.0595693
        ]
      }
    },
    {
      "type": "Feature",
      "properties": {
        "name": "賀茂別雷神社"
      },
      "geometry": {
        "type": "Point",
        "coordinates": [
          135.7528409,
          35.05972519
        ]
      }
    },
    {
      "type": "Feature",
      "properties": {
        "name": "賀茂別雷神社"
      },
      "geometry": {
        "type": "Point",
        "coordinates": [
          135.7527996,
          35.05985356
        ]
      }
    },
    {
      "type": "Feature",
      "properties": {
        "name": "賀茂別雷神社"
      },
      "geometry": {
        "type": "Point",
        "coordinates": [
          135.7526277,
          35.05986502
        ]
      }
    },
    {
      "type": "Feature",
      "properties": {
        "name": "賀茂別雷神社"
      },
      "geometry": {
        "type": "Point",
        "coordinates": [
          135.7529944,
          35.06006904
        ]
      }
    },
    {
      "type": "Feature",
      "properties": {
        "name": "賀茂別雷神社"
      },
      "geometry": {
        "type": "Point",
        "coordinates": [
          135.752701,
          35.06009655
        ]
      }
    },
    {
      "type": "Feature",
      "properties": {
        "name": "賀茂別雷神社"
      },
      "geometry": {
        "type": "Point",
        "coordinates": [
          135.7530861,
          35.06009655
        ]
      }
    },
    {
      "type": "Feature",
      "properties": {
        "name": "賀茂別雷神社"
      },
      "geometry": {
        "type": "Point",
        "coordinates": [
          135.7528065,
          35.06014927
        ]
      }
    },
    {
      "type": "Feature",
      "properties": {
        "name": "賀茂別雷神社"
      },
      "geometry": {
        "type": "Point",
        "coordinates": [
          135.7526185,
          35.06016303
        ]
      }
    },
    {
      "type": "Feature",
      "properties": {
        "name": "賀茂別雷神社"
      },
      "geometry": {
        "type": "Point",
        "coordinates": [
          135.7529371,
          35.06017449
        ]
      }
    },
    {
      "type": "Feature",
      "properties": {
        "name": "賀茂別雷神社"
      },
      "geometry": {
        "type": "Point",
        "coordinates": [
          135.7528913,
          35.06026389
        ]
      }
    },
    {
      "type": "Feature",
      "properties": {
        "name": "賀茂別雷神社"
      },
      "geometry": {
        "type": "Point",
        "coordinates": [
          135.7529578,
          35.06026618
        ]
      }
    },
    {
      "type": "Feature",
      "properties": {
        "name": "賀茂別雷神社"
      },
      "geometry": {
        "type": "Point",
        "coordinates": [
          135.7525979,
          35.06027765
        ]
      }
    },
    {
      "type": "Feature",
      "properties": {
        "name": "賀茂別雷神社"
      },
      "geometry": {
        "type": "Point",
        "coordinates": [
          135.7530197,
          35.06030516
        ]
      }
    },
    {
      "type": "Feature",
      "properties": {
        "name": "賀茂別雷神社"
      },
      "geometry": {
        "type": "Point",
        "coordinates": [
          135.7527492,
          35.06032579
        ]
      }
    },
    {
      "type": "Feature",
      "properties": {
        "name": "賀茂別雷神社"
      },
      "geometry": {
        "type": "Point",
        "coordinates": [
          135.7528752,
          35.06036476
        ]
      }
    },
    {
      "type": "Feature",
      "properties": {
        "name": "賀茂別雷神社"
      },
      "geometry": {
        "type": "Point",
        "coordinates": [
          135.7526827,
          35.06037622
        ]
      }
    },
    {
      "type": "Feature",
      "properties": {
        "name": "賀茂別雷神社"
      },
      "geometry": {
        "type": "Point",
        "coordinates": [
          135.7525199,
          35.06037851
        ]
      }
    },
    {
      "type": "Feature",
      "properties": {
        "name": "賀茂別雷神社"
      },
      "geometry": {
        "type": "Point",
        "coordinates": [
          135.7530151,
          35.06040831
        ]
      }
    },
    {
      "type": "Feature",
      "properties": {
        "name": "賀茂別雷神社"
      },
      "geometry": {
        "type": "Point",
        "coordinates": [
          135.7527583,
          35.06042207
        ]
      }
    },
    {
      "type": "Feature",
      "properties": {
        "name": "賀茂別雷神社"
      },
      "geometry": {
        "type": "Point",
        "coordinates": [
          135.7525589,
          35.06042894
        ]
      }
    },
    {
      "type": "Feature",
      "properties": {
        "name": "賀茂別雷神社"
      },
      "geometry": {
        "type": "Point",
        "coordinates": [
          135.7528363,
          35.06043811
        ]
      }
    },
    {
      "type": "Feature",
      "properties": {
        "name": "賀茂別雷神社"
      },
      "geometry": {
        "type": "Point",
        "coordinates": [
          135.7526964,
          35.0604427
        ]
      }
    },
    {
      "type": "Feature",
      "properties": {
        "name": "賀茂別雷神社"
      },
      "geometry": {
        "type": "Point",
        "coordinates": [
          135.7528179,
          35.06046562
        ]
      }
    },
    {
      "type": "Feature",
      "properties": {
        "name": "賀茂別雷神社"
      },
      "geometry": {
        "type": "Point",
        "coordinates": [
          135.7530036,
          35.06047479
        ]
      }
    },
    {
      "type": "Feature",
      "properties": {
        "name": "賀茂別雷神社"
      },
      "geometry": {
        "type": "Point",
        "coordinates": [
          135.7528133,
          35.06049542
        ]
      }
    },
    {
      "type": "Feature",
      "properties": {
        "name": "賀茂別雷神社"
      },
      "geometry": {
        "type": "Point",
        "coordinates": [
          135.7529142,
          35.06052064
        ]
      }
    },
    {
      "type": "Feature",
      "properties": {
        "name": "賀茂別雷神社"
      },
      "geometry": {
        "type": "Point",
        "coordinates": [
          135.7531136,
          35.06055273
        ]
      }
    },
    {
      "type": "Feature",
      "properties": {
        "name": "賀茂別雷神社"
      },
      "geometry": {
        "type": "Point",
        "coordinates": [
          135.7528454,
          35.06055961
        ]
      }
    },
    {
      "type": "Feature",
      "properties": {
        "name": "賀茂別雷神社"
      },
      "geometry": {
        "type": "Point",
        "coordinates": [
          135.7529692,
          35.0605619
        ]
      }
    },
    {
      "type": "Feature",
      "properties": {
        "name": "賀茂別雷神社"
      },
      "geometry": {
        "type": "Point",
        "coordinates": [
          135.7531205,
          35.06061692
        ]
      }
    },
    {
      "type": "Feature",
      "properties": {
        "name": "賀茂別雷神社"
      },
      "geometry": {
        "type": "Point",
        "coordinates": [
          135.7529257,
          35.06009655
        ]
      }
    },
    {
      "type": "Feature",
      "properties": {
        "name": "勧修寺書院"
      },
      "geometry": {
        "type": "Point",
        "coordinates": [
          135.8074086,
          34.96158231
        ]
      }
    },
    {
      "type": "Feature",
      "properties": {
        "name": "岩船寺五輪塔"
      },
      "geometry": {
        "type": "Point",
        "coordinates": [
          135.8860559,
          34.72010868
        ]
      }
    },
    {
      "type": "Feature",
      "properties": {
        "name": "岩船寺三重塔"
      },
      "geometry": {
        "type": "Point",
        "coordinates": [
          135.8858955,
          34.71972906
        ]
      }
    },
    {
      "type": "Feature",
      "properties": {
        "name": "岩船寺十三重塔"
      },
      "geometry": {
        "type": "Point",
        "coordinates": [
          135.8859543,
          34.71979918
        ]
      }
    },
    {
      "type": "Feature",
      "properties": {
        "name": "岩船寺石室"
      },
      "geometry": {
        "type": "Point",
        "coordinates": [
          135.8860897,
          34.72018847
        ]
      }
    },
    {
      "type": "Feature",
      "properties": {
        "name": "観智院客殿"
      },
      "geometry": {
        "type": "Point",
        "coordinates": [
          135.7479506,
          34.98265209
        ]
      }
    },
    {
      "type": "Feature",
      "properties": {
        "name": "観音堂"
      },
      "geometry": {
        "type": "Point",
        "coordinates": [
          135.4241885,
          35.30380614
        ]
      }
    },
    {
      "type": "Feature",
      "properties": {
        "name": "北野天満宮"
      },
      "geometry": {
        "type": "Point",
        "coordinates": [
          135.7350971,
          35.03124846
        ]
      }
    },
    {
      "type": "Feature",
      "properties": {
        "name": "北野天満宮"
      },
      "geometry": {
        "type": "Point",
        "coordinates": [
          135.7350946,
          35.03091294
        ]
      }
    },
    {
      "type": "Feature",
      "properties": {
        "name": "北野天満宮"
      },
      "geometry": {
        "type": "Point",
        "coordinates": [
          135.7352595,
          35.03103849
        ]
      }
    },
    {
      "type": "Feature",
      "properties": {
        "name": "北野天満宮"
      },
      "geometry": {
        "type": "Point",
        "coordinates": [
          135.7349444,
          35.03104834
        ]
      }
    },
    {
      "type": "Feature",
      "properties": {
        "name": "北野天満宮"
      },
      "geometry": {
        "type": "Point",
        "coordinates": [
          135.7358061,
          35.03133145
        ]
      }
    },
    {
      "type": "Feature",
      "properties": {
        "name": "北野天満宮"
      },
      "geometry": {
        "type": "Point",
        "coordinates": [
          135.7349,
          35.03137972
        ]
      }
    },
    {
      "type": "Feature",
      "properties": {
        "name": "北野天満宮"
      },
      "geometry": {
        "type": "Point",
        "coordinates": [
          135.7351997,
          35.03137972
        ]
      }
    },
    {
      "type": "Feature",
      "properties": {
        "name": "北野天満宮"
      },
      "geometry": {
        "type": "Point",
        "coordinates": [
          135.7350921,
          35.03144962
        ]
      }
    },
    {
      "type": "Feature",
      "properties": {
        "name": "旧真宗信徒生命保険株式会社本館（本願寺伝道院）"
      },
      "geometry": {
        "type": "Point",
        "coordinates": [
          135.7540505,
          34.99134824
        ]
      }
    },
    {
      "type": "Feature",
      "properties": {
        "name": "旧尾藤家住宅（京都府与謝郡与謝野町字加悦）"
      },
      "geometry": {
        "type": "Point",
        "coordinates": [
          135.0919528,
          35.50440833
        ]
      }
    },
    {
      "type": "Feature",
      "properties": {
        "name": "旧尾藤家住宅（京都府与謝郡与謝野町字加悦）"
      },
      "geometry": {
        "type": "Point",
        "coordinates": [
          135.0919528,
          35.50440833
        ]
      }
    },
    {
      "type": "Feature",
      "properties": {
        "name": "旧尾藤家住宅（京都府与謝郡与謝野町字加悦）"
      },
      "geometry": {
        "type": "Point",
        "coordinates": [
          135.0919528,
          35.50440833
        ]
      }
    },
    {
      "type": "Feature",
      "properties": {
        "name": "旧尾藤家住宅（京都府与謝郡与謝野町字加悦）"
      },
      "geometry": {
        "type": "Point",
        "coordinates": [
          135.0919528,
          35.50440833
        ]
      }
    },
    {
      "type": "Feature",
      "properties": {
        "name": "旧尾藤家住宅（京都府与謝郡与謝野町字加悦）"
      },
      "geometry": {
        "type": "Point",
        "coordinates": [
          135.0919528,
          35.50440833
        ]
      }
    },
    {
      "type": "Feature",
      "properties": {
        "name": "旧尾藤家住宅（京都府与謝郡与謝野町字加悦）"
      },
      "geometry": {
        "type": "Point",
        "coordinates": [
          135.0919528,
          35.50440833
        ]
      }
    },
    {
      "type": "Feature",
      "properties": {
        "name": "旧尾藤家住宅（京都府与謝郡与謝野町字加悦）"
      },
      "geometry": {
        "type": "Point",
        "coordinates": [
          135.0919528,
          35.50440833
        ]
      }
    },
    {
      "type": "Feature",
      "properties": {
        "name": "旧尾藤家住宅（京都府与謝郡与謝野町字加悦）"
      },
      "geometry": {
        "type": "Point",
        "coordinates": [
          135.0919528,
          35.50440833
        ]
      }
    },
    {
      "type": "Feature",
      "properties": {
        "name": "旧三井家下鴨別邸"
      },
      "geometry": {
        "type": "Point",
        "coordinates": [
          135.772039,
          35.03166518
        ]
      }
    },
    {
      "type": "Feature",
      "properties": {
        "name": "旧三井家下鴨別邸"
      },
      "geometry": {
        "type": "Point",
        "coordinates": [
          135.7719041,
          35.03173844
        ]
      }
    },
    {
      "type": "Feature",
      "properties": {
        "name": "旧三井家下鴨別邸"
      },
      "geometry": {
        "type": "Point",
        "coordinates": [
          135.7717726,
          35.03181504
        ]
      }
    },
    {
      "type": "Feature",
      "properties": {
        "name": "旧村井家別邸（長楽館）"
      },
      "geometry": {
        "type": "Point",
        "coordinates": [
          135.7801194,
          35.00310278
        ]
      }
    },
    {
      "type": "Feature",
      "properties": {
        "name": "教王護国寺灌頂院"
      },
      "geometry": {
        "type": "Point",
        "coordinates": [
          135.7470083,
          34.97971147
        ]
      }
    },
    {
      "type": "Feature",
      "properties": {
        "name": "教王護国寺灌頂院"
      },
      "geometry": {
        "type": "Point",
        "coordinates": [
          135.7466766,
          34.97979688
        ]
      }
    },
    {
      "type": "Feature",
      "properties": {
        "name": "教王護国寺灌頂院"
      },
      "geometry": {
        "type": "Point",
        "coordinates": [
          135.7466797,
          34.98013235
        ]
      }
    },
    {
      "type": "Feature",
      "properties": {
        "name": "教王護国寺北総門"
      },
      "geometry": {
        "type": "Point",
        "coordinates": [
          135.7476732,
          34.98418711
        ]
      }
    },
    {
      "type": "Feature",
      "properties": {
        "name": "教王護国寺北大門"
      },
      "geometry": {
        "type": "Point",
        "coordinates": [
          135.7476815,
          34.98204396
        ]
      }
    },
    {
      "type": "Feature",
      "properties": {
        "name": "教王護国寺慶賀門"
      },
      "geometry": {
        "type": "Point",
        "coordinates": [
          135.7490606,
          34.98186801
        ]
      }
    },
    {
      "type": "Feature",
      "properties": {
        "name": "教王護国寺講堂"
      },
      "geometry": {
        "type": "Point",
        "coordinates": [
          135.7476936,
          34.98074607
        ]
      }
    },
    {
      "type": "Feature",
      "properties": {
        "name": "教王護国寺五重小塔"
      },
      "geometry": {
        "type": "Point",
        "coordinates": [
          135.7466727,
          34.98108902
        ]
      }
    },
    {
      "type": "Feature",
      "properties": {
        "name": "教王護国寺五重塔"
      },
      "geometry": {
        "type": "Point",
        "coordinates": [
          135.74873,
          34.97987462
        ]
      }
    },
    {
      "type": "Feature",
      "properties": {
        "name": "教王護国寺金堂"
      },
      "geometry": {
        "type": "Point",
        "coordinates": [
          135.7476848,
          34.98032905
        ]
      }
    },
    {
      "type": "Feature",
      "properties": {
        "name": "教王護国寺大師堂（西院御影堂）"
      },
      "geometry": {
        "type": "Point",
        "coordinates": [
          135.746779,
          34.9816563
        ]
      }
    },
    {
      "type": "Feature",
      "properties": {
        "name": "教王護国寺東大門"
      },
      "geometry": {
        "type": "Point",
        "coordinates": [
          135.7490627,
          34.98068211
        ]
      }
    },
    {
      "type": "Feature",
      "properties": {
        "name": "教王護国寺南大門"
      },
      "geometry": {
        "type": "Point",
        "coordinates": [
          135.7477027,
          34.97953815
        ]
      }
    },
    {
      "type": "Feature",
      "properties": {
        "name": "教王護国寺宝蔵"
      },
      "geometry": {
        "type": "Point",
        "coordinates": [
          135.7488151,
          34.98149262
        ]
      }
    },
    {
      "type": "Feature",
      "properties": {
        "name": "教王護国寺蓮花門"
      },
      "geometry": {
        "type": "Point",
        "coordinates": [
          135.7463006,
          34.98065676
        ]
      }
    },
    {
      "type": "Feature",
      "properties": {
        "name": "経ケ岬灯台"
      },
      "geometry": {
        "type": "Point",
        "coordinates": [
          135.223075,
          35.77686944
        ]
      }
    },
    {
      "type": "Feature",
      "properties": {
        "name": "経ケ岬灯台"
      },
      "geometry": {
        "type": "Point",
        "coordinates": [
          135.22335,
          35.77714444
        ]
      }
    },
    {
      "type": "Feature",
      "properties": {
        "name": "旧京都中央電話局西陣分局舎"
      },
      "geometry": {
        "type": "Point",
        "coordinates": [
          135.753397,
          35.02479099
        ]
      }
    },
    {
      "type": "Feature",
      "properties": {
        "name": "京都ハリストス正教会生神女福音聖堂"
      },
      "geometry": {
        "type": "Point",
        "coordinates": [
          135.7643,
          35.0144
        ]
      }
    },
    {
      "type": "Feature",
      "properties": {
        "name": "京都府庁旧本館"
      },
      "geometry": {
        "type": "Point",
        "coordinates": [
          135.7555889,
          35.02123798
        ]
      }
    },
    {
      "type": "Feature",
      "properties": {
        "name": "玉鳳院開山堂"
      },
      "geometry": {
        "type": "Point",
        "coordinates": [
          135.7217736,
          35.02259209
        ]
      }
    },
    {
      "type": "Feature",
      "properties": {
        "name": "玉鳳院四脚門（微笑庵前門）"
      },
      "geometry": {
        "type": "Point",
        "coordinates": [
          135.7217453,
          35.022401
        ]
      }
    },
    {
      "type": "Feature",
      "properties": {
        "name": "玉林院南明庵及び茶室（蓑庵、霞床席）附蓑庵露地"
      },
      "geometry": {
        "type": "Point",
        "coordinates": [
          135.7429683,
          35.04232731
        ]
      }
    },
    {
      "type": "Feature",
      "properties": {
        "name": "玉林院南明庵及び茶室（蓑庵、霞床席）附蓑庵露地"
      },
      "geometry": {
        "type": "Point",
        "coordinates": [
          135.7429683,
          35.04232731
        ]
      }
    },
    {
      "type": "Feature",
      "properties": {
        "name": "玉林院南明庵及び茶室（蓑庵、霞床席）附蓑庵露地"
      },
      "geometry": {
        "type": "Point",
        "coordinates": [
          135.7429683,
          35.04232731
        ]
      }
    },
    {
      "type": "Feature",
      "properties": {
        "name": "玉林院本堂"
      },
      "geometry": {
        "type": "Point",
        "coordinates": [
          135.743189,
          35.0424409
        ]
      }
    },
    {
      "type": "Feature",
      "properties": {
        "name": "清水寺"
      },
      "geometry": {
        "type": "Point",
        "coordinates": [
          135.7841884,
          34.99543337
        ]
      }
    },
    {
      "type": "Feature",
      "properties": {
        "name": "清水寺"
      },
      "geometry": {
        "type": "Point",
        "coordinates": [
          135.7849571,
          34.99292383
        ]
      }
    },
    {
      "type": "Feature",
      "properties": {
        "name": "清水寺"
      },
      "geometry": {
        "type": "Point",
        "coordinates": [
          135.7855521,
          34.99458705
        ]
      }
    },
    {
      "type": "Feature",
      "properties": {
        "name": "清水寺"
      },
      "geometry": {
        "type": "Point",
        "coordinates": [
          135.7855966,
          34.99475727
        ]
      }
    },
    {
      "type": "Feature",
      "properties": {
        "name": "清水寺"
      },
      "geometry": {
        "type": "Point",
        "coordinates": [
          135.7844625,
          34.99478311
        ]
      }
    },
    {
      "type": "Feature",
      "properties": {
        "name": "清水寺"
      },
      "geometry": {
        "type": "Point",
        "coordinates": [
          135.7845847,
          34.99490757
        ]
      }
    },
    {
      "type": "Feature",
      "properties": {
        "name": "清水寺"
      },
      "geometry": {
        "type": "Point",
        "coordinates": [
          135.7856383,
          34.99492607
        ]
      }
    },
    {
      "type": "Feature",
      "properties": {
        "name": "清水寺"
      },
      "geometry": {
        "type": "Point",
        "coordinates": [
          135.784329,
          34.99495833
        ]
      }
    },
    {
      "type": "Feature",
      "properties": {
        "name": "清水寺"
      },
      "geometry": {
        "type": "Point",
        "coordinates": [
          135.7840723,
          34.99504044
        ]
      }
    },
    {
      "type": "Feature",
      "properties": {
        "name": "清水寺"
      },
      "geometry": {
        "type": "Point",
        "coordinates": [
          135.7838424,
          34.99505928
        ]
      }
    },
    {
      "type": "Feature",
      "properties": {
        "name": "清水寺"
      },
      "geometry": {
        "type": "Point",
        "coordinates": [
          135.7836311,
          34.99512169
        ]
      }
    },
    {
      "type": "Feature",
      "properties": {
        "name": "清水寺"
      },
      "geometry": {
        "type": "Point",
        "coordinates": [
          135.7843256,
          34.99520503
        ]
      }
    },
    {
      "type": "Feature",
      "properties": {
        "name": "清水寺"
      },
      "geometry": {
        "type": "Point",
        "coordinates": [
          135.7836156,
          34.99534511
        ]
      }
    },
    {
      "type": "Feature",
      "properties": {
        "name": "清水寺"
      },
      "geometry": {
        "type": "Point",
        "coordinates": [
          135.7833383,
          34.99543375
        ]
      }
    },
    {
      "type": "Feature",
      "properties": {
        "name": "清水寺"
      },
      "geometry": {
        "type": "Point",
        "coordinates": [
          135.7831952,
          34.99563644
        ]
      }
    },
    {
      "type": "Feature",
      "properties": {
        "name": "清水寺本堂"
      },
      "geometry": {
        "type": "Point",
        "coordinates": [
          135.7849155,
          34.9948223
        ]
      }
    },
    {
      "type": "Feature",
      "properties": {
        "name": "金輪寺五重塔"
      },
      "geometry": {
        "type": "Point",
        "coordinates": [
          135.4705532,
          35.03615911
        ]
      }
    },
    {
      "type": "Feature",
      "properties": {
        "name": "久世神社本殿"
      },
      "geometry": {
        "type": "Point",
        "coordinates": [
          135.7801586,
          34.8597138
        ]
      }
    },
    {
      "type": "Feature",
      "properties": {
        "name": "九手神社本殿"
      },
      "geometry": {
        "type": "Point",
        "coordinates": [
          135.3973799,
          35.17802496
        ]
      }
    },
    {
      "type": "Feature",
      "properties": {
        "name": "九品寺大門"
      },
      "geometry": {
        "type": "Point",
        "coordinates": [
          135.4417193,
          35.10134504
        ]
      }
    },
    {
      "type": "Feature",
      "properties": {
        "name": "建仁寺勅使門（矢の根門）"
      },
      "geometry": {
        "type": "Point",
        "coordinates": [
          135.7733636,
          34.99910307
        ]
      }
    },
    {
      "type": "Feature",
      "properties": {
        "name": "建仁寺方丈"
      },
      "geometry": {
        "type": "Point",
        "coordinates": [
          135.7737294,
          35.00105882
        ]
      }
    },
    {
      "type": "Feature",
      "properties": {
        "name": "高山寺石水院（五所堂）"
      },
      "geometry": {
        "type": "Point",
        "coordinates": [
          135.6785585,
          35.06013049
        ]
      }
    },
    {
      "type": "Feature",
      "properties": {
        "name": "高山寺如法経塔"
      },
      "geometry": {
        "type": "Point",
        "coordinates": [
          135.6785979,
          35.06143445
        ]
      }
    },
    {
      "type": "Feature",
      "properties": {
        "name": "高山寺宝篋印塔"
      },
      "geometry": {
        "type": "Point",
        "coordinates": [
          135.6785507,
          35.06143918
        ]
      }
    },
    {
      "type": "Feature",
      "properties": {
        "name": "高台寺表門"
      },
      "geometry": {
        "type": "Point",
        "coordinates": [
          135.7806489,
          35.00052521
        ]
      }
    },
    {
      "type": "Feature",
      "properties": {
        "name": "高台寺開山堂"
      },
      "geometry": {
        "type": "Point",
        "coordinates": [
          135.7816795,
          35.000976
        ]
      }
    },
    {
      "type": "Feature",
      "properties": {
        "name": "高台寺傘亭（安閑窟）及び時雨亭"
      },
      "geometry": {
        "type": "Point",
        "coordinates": [
          135.7826453,
          35.00056561
        ]
      }
    },
    {
      "type": "Feature",
      "properties": {
        "name": "高台寺傘亭（安閑窟）及び時雨亭"
      },
      "geometry": {
        "type": "Point",
        "coordinates": [
          135.7826539,
          35.00066932
        ]
      }
    },
    {
      "type": "Feature",
      "properties": {
        "name": "高台寺観月台"
      },
      "geometry": {
        "type": "Point",
        "coordinates": [
          135.7815167,
          35.00092304
        ]
      }
    },
    {
      "type": "Feature",
      "properties": {
        "name": "高台寺霊屋"
      },
      "geometry": {
        "type": "Point",
        "coordinates": [
          135.782154,
          35.00092971
        ]
      }
    },
    {
      "type": "Feature",
      "properties": {
        "name": "衡梅院本堂"
      },
      "geometry": {
        "type": "Point",
        "coordinates": [
          135.7207972,
          35.02207101
        ]
      }
    },
    {
      "type": "Feature",
      "properties": {
        "name": "光明寺二王門"
      },
      "geometry": {
        "type": "Point",
        "coordinates": [
          135.44213,
          35.38741415
        ]
      }
    },
    {
      "type": "Feature",
      "properties": {
        "name": "広隆寺桂宮院本堂"
      },
      "geometry": {
        "type": "Point",
        "coordinates": [
          135.7054123,
          35.01502978
        ]
      }
    },
    {
      "type": "Feature",
      "properties": {
        "name": "広隆寺講堂"
      },
      "geometry": {
        "type": "Point",
        "coordinates": [
          135.7063999,
          35.01509228
        ]
      }
    },
    {
      "type": "Feature",
      "properties": {
        "name": "興臨院表門"
      },
      "geometry": {
        "type": "Point",
        "coordinates": [
          135.7429602,
          35.04420758
        ]
      }
    },
    {
      "type": "Feature",
      "properties": {
        "name": "興臨院本堂"
      },
      "geometry": {
        "type": "Point",
        "coordinates": [
          135.7429602,
          35.04420758
        ]
      }
    },
    {
      "type": "Feature",
      "properties": {
        "name": "御香宮神社表門"
      },
      "geometry": {
        "type": "Point",
        "coordinates": [
          135.7674609,
          34.93406244
        ]
      }
    },
    {
      "type": "Feature",
      "properties": {
        "name": "御香宮神社本殿"
      },
      "geometry": {
        "type": "Point",
        "coordinates": [
          135.7674948,
          34.9347538
        ]
      }
    },
    {
      "type": "Feature",
      "properties": {
        "name": "許波多神社本殿"
      },
      "geometry": {
        "type": "Point",
        "coordinates": [
          135.7940007,
          34.91708588
        ]
      }
    },
    {
      "type": "Feature",
      "properties": {
        "name": "小林家住宅（京都府相楽郡山城町）"
      },
      "geometry": {
        "type": "Point",
        "coordinates": [
          135.8188224,
          34.75463199
        ]
      }
    },
    {
      "type": "Feature",
      "properties": {
        "name": "小林家住宅（京都府北桑田郡美山町）"
      },
      "geometry": {
        "type": "Point",
        "coordinates": [
          135.5684166,
          35.27010036
        ]
      }
    },
    {
      "type": "Feature",
      "properties": {
        "name": "小林家住宅（京都府北桑田郡美山町）"
      },
      "geometry": {
        "type": "Point",
        "coordinates": [
          135.5684166,
          35.27010036
        ]
      }
    },
    {
      "type": "Feature",
      "properties": {
        "name": "小林家住宅（京都府北桑田郡美山町）"
      },
      "geometry": {
        "type": "Point",
        "coordinates": [
          135.5684166,
          35.27010036
        ]
      }
    },
    {
      "type": "Feature",
      "properties": {
        "name": "孤篷庵本堂（方丈）、書院及び忘筌"
      },
      "geometry": {
        "type": "Point",
        "coordinates": [
          135.7399484,
          35.04306371
        ]
      }
    },
    {
      "type": "Feature",
      "properties": {
        "name": "孤篷庵本堂（方丈）、書院及び忘筌"
      },
      "geometry": {
        "type": "Point",
        "coordinates": [
          135.7398586,
          35.04310145
        ]
      }
    },
    {
      "type": "Feature",
      "properties": {
        "name": "孤篷庵本堂（方丈）、書院及び忘筌"
      },
      "geometry": {
        "type": "Point",
        "coordinates": [
          135.7397532,
          35.04317694
        ]
      }
    },
    {
      "type": "Feature",
      "properties": {
        "name": "御靈神社本殿"
      },
      "geometry": {
        "type": "Point",
        "coordinates": [
          135.8263328,
          34.74120962
        ]
      }
    },
    {
      "type": "Feature",
      "properties": {
        "name": "五輪塔"
      },
      "geometry": {
        "type": "Point",
        "coordinates": [
          135.8699183,
          34.71220248
        ]
      }
    },
    {
      "type": "Feature",
      "properties": {
        "name": "五輪塔"
      },
      "geometry": {
        "type": "Point",
        "coordinates": [
          135.8699183,
          34.71220248
        ]
      }
    },
    {
      "type": "Feature",
      "properties": {
        "name": "五輪塔"
      },
      "geometry": {
        "type": "Point",
        "coordinates": [
          135.8177552,
          34.73622388
        ]
      }
    },
    {
      "type": "Feature",
      "properties": {
        "name": "金戒光明寺三重塔"
      },
      "geometry": {
        "type": "Point",
        "coordinates": [
          135.7897451,
          35.01888424
        ]
      }
    },
    {
      "type": "Feature",
      "properties": {
        "name": "金剛院塔婆（三重塔）"
      },
      "geometry": {
        "type": "Point",
        "coordinates": [
          135.446837,
          35.47665606
        ]
      }
    },
    {
      "type": "Feature",
      "properties": {
        "name": "金胎寺多宝塔"
      },
      "geometry": {
        "type": "Point",
        "coordinates": [
          135.9089664,
          34.83010176
        ]
      }
    },
    {
      "type": "Feature",
      "properties": {
        "name": "金胎寺宝篋印塔"
      },
      "geometry": {
        "type": "Point",
        "coordinates": [
          135.9085032,
          34.83047898
        ]
      }
    },
    {
      "type": "Feature",
      "properties": {
        "name": "金地院茶室"
      },
      "geometry": {
        "type": "Point",
        "coordinates": [
          135.7907051,
          35.01052181
        ]
      }
    },
    {
      "type": "Feature",
      "properties": {
        "name": "金地院本堂"
      },
      "geometry": {
        "type": "Point",
        "coordinates": [
          135.79045,
          35.01026334
        ]
      }
    },
    {
      "type": "Feature",
      "properties": {
        "name": "西翁院茶室"
      },
      "geometry": {
        "type": "Point",
        "coordinates": [
          135.7865681,
          35.01921355
        ]
      }
    },
    {
      "type": "Feature",
      "properties": {
        "name": "西芳寺湘南亭"
      },
      "geometry": {
        "type": "Point",
        "coordinates": [
          135.6843252,
          34.99187344
        ]
      }
    },
    {
      "type": "Feature",
      "properties": {
        "name": "西芳寺湘南亭"
      },
      "geometry": {
        "type": "Point",
        "coordinates": [
          135.6843794,
          34.99191408
        ]
      }
    },
    {
      "type": "Feature",
      "properties": {
        "name": "佐牙神社本殿"
      },
      "geometry": {
        "type": "Point",
        "coordinates": [
          135.7606549,
          34.82130989
        ]
      }
    },
    {
      "type": "Feature",
      "properties": {
        "name": "佐牙神社本殿"
      },
      "geometry": {
        "type": "Point",
        "coordinates": [
          135.7606549,
          34.82130989
        ]
      }
    },
    {
      "type": "Feature",
      "properties": {
        "name": "相樂神社本殿"
      },
      "geometry": {
        "type": "Point",
        "coordinates": [
          135.8000849,
          34.73663221
        ]
      }
    },
    {
      "type": "Feature",
      "properties": {
        "name": "雙栗神社本殿"
      },
      "geometry": {
        "type": "Point",
        "coordinates": [
          135.7575626,
          34.87626604
        ]
      }
    },
    {
      "type": "Feature",
      "properties": {
        "name": "澤井家住宅（京都府綴喜郡田辺町）"
      },
      "geometry": {
        "type": "Point",
        "coordinates": [
          135.7504219,
          34.83669102
        ]
      }
    },
    {
      "type": "Feature",
      "properties": {
        "name": "三聖寺愛染堂"
      },
      "geometry": {
        "type": "Point",
        "coordinates": [
          135.7733284,
          34.97786126
        ]
      }
    },
    {
      "type": "Feature",
      "properties": {
        "name": "三宝院唐門"
      },
      "geometry": {
        "type": "Point",
        "coordinates": [
          135.8191558,
          34.95175599
        ]
      }
    },
    {
      "type": "Feature",
      "properties": {
        "name": "三宝院殿堂"
      },
      "geometry": {
        "type": "Point",
        "coordinates": [
          135.8194801,
          34.95209262
        ]
      }
    },
    {
      "type": "Feature",
      "properties": {
        "name": "三宝院殿堂"
      },
      "geometry": {
        "type": "Point",
        "coordinates": [
          135.8201322,
          34.95204764
        ]
      }
    },
    {
      "type": "Feature",
      "properties": {
        "name": "三宝院殿堂"
      },
      "geometry": {
        "type": "Point",
        "coordinates": [
          135.8194913,
          34.95249177
        ]
      }
    },
    {
      "type": "Feature",
      "properties": {
        "name": "三宝院殿堂"
      },
      "geometry": {
        "type": "Point",
        "coordinates": [
          135.8197781,
          34.95203078
        ]
      }
    },
    {
      "type": "Feature",
      "properties": {
        "name": "三宝院殿堂"
      },
      "geometry": {
        "type": "Point",
        "coordinates": [
          135.8189632,
          34.95215055
        ]
      }
    },
    {
      "type": "Feature",
      "properties": {
        "name": "三宝院殿堂"
      },
      "geometry": {
        "type": "Point",
        "coordinates": [
          135.8191393,
          34.95221873
        ]
      }
    },
    {
      "type": "Feature",
      "properties": {
        "name": "三宝院殿堂"
      },
      "geometry": {
        "type": "Point",
        "coordinates": [
          135.8196433,
          34.95230387
        ]
      }
    },
    {
      "type": "Feature",
      "properties": {
        "name": "三宝院宝篋印塔"
      },
      "geometry": {
        "type": "Point",
        "coordinates": [
          135.8230021,
          34.94843604
        ]
      }
    },
    {
      "type": "Feature",
      "properties": {
        "name": "地主神社"
      },
      "geometry": {
        "type": "Point",
        "coordinates": [
          135.7849953,
          34.9950699
        ]
      }
    },
    {
      "type": "Feature",
      "properties": {
        "name": "地主神社"
      },
      "geometry": {
        "type": "Point",
        "coordinates": [
          135.7848203,
          34.99509805
        ]
      }
    },
    {
      "type": "Feature",
      "properties": {
        "name": "地主神社"
      },
      "geometry": {
        "type": "Point",
        "coordinates": [
          135.7849691,
          34.99521467
        ]
      }
    },
    {
      "type": "Feature",
      "properties": {
        "name": "慈照寺銀閣"
      },
      "geometry": {
        "type": "Point",
        "coordinates": [
          135.7980514,
          35.02653952
        ]
      }
    },
    {
      "type": "Feature",
      "properties": {
        "name": "慈照寺東求堂"
      },
      "geometry": {
        "type": "Point",
        "coordinates": [
          135.7984689,
          35.02688522
        ]
      }
    },
    {
      "type": "Feature",
      "properties": {
        "name": "島田神社本殿"
      },
      "geometry": {
        "type": "Point",
        "coordinates": [
          135.0468284,
          35.28159729
        ]
      }
    },
    {
      "type": "Feature",
      "properties": {
        "name": "酬恩庵"
      },
      "geometry": {
        "type": "Point",
        "coordinates": [
          135.7575278,
          34.82063275
        ]
      }
    },
    {
      "type": "Feature",
      "properties": {
        "name": "酬恩庵"
      },
      "geometry": {
        "type": "Point",
        "coordinates": [
          135.7580403,
          34.8207558
        ]
      }
    },
    {
      "type": "Feature",
      "properties": {
        "name": "酬恩庵"
      },
      "geometry": {
        "type": "Point",
        "coordinates": [
          135.7574057,
          34.82091321
        ]
      }
    },
    {
      "type": "Feature",
      "properties": {
        "name": "酬恩庵"
      },
      "geometry": {
        "type": "Point",
        "coordinates": [
          135.7576277,
          34.82092346
        ]
      }
    },
    {
      "type": "Feature",
      "properties": {
        "name": "酬恩庵"
      },
      "geometry": {
        "type": "Point",
        "coordinates": [
          135.7574805,
          34.8210267
        ]
      }
    },
    {
      "type": "Feature",
      "properties": {
        "name": "酬恩庵"
      },
      "geometry": {
        "type": "Point",
        "coordinates": [
          135.7576978,
          34.82107681
        ]
      }
    },
    {
      "type": "Feature",
      "properties": {
        "name": "酬恩庵本堂"
      },
      "geometry": {
        "type": "Point",
        "coordinates": [
          135.7570262,
          34.82070257
        ]
      }
    },
    {
      "type": "Feature",
      "properties": {
        "name": "十三重塔"
      },
      "geometry": {
        "type": "Point",
        "coordinates": [
          135.879627,
          34.72901177
        ]
      }
    },
    {
      "type": "Feature",
      "properties": {
        "name": "十八神社本殿"
      },
      "geometry": {
        "type": "Point",
        "coordinates": [
          135.8190949,
          34.90073055
        ]
      }
    },
    {
      "type": "Feature",
      "properties": {
        "name": "聚光院茶室"
      },
      "geometry": {
        "type": "Point",
        "coordinates": [
          135.7452791,
          35.04412497
        ]
      }
    },
    {
      "type": "Feature",
      "properties": {
        "name": "聚光院本堂"
      },
      "geometry": {
        "type": "Point",
        "coordinates": [
          135.7451804,
          35.04400712
        ]
      }
    },
    {
      "type": "Feature",
      "properties": {
        "name": "聖護院書院"
      },
      "geometry": {
        "type": "Point",
        "coordinates": [
          135.7808036,
          35.01921563
        ]
      }
    },
    {
      "type": "Feature",
      "properties": {
        "name": "相国寺本堂（法堂）附玄関廊"
      },
      "geometry": {
        "type": "Point",
        "coordinates": [
          135.7619796,
          35.03255365
        ]
      }
    },
    {
      "type": "Feature",
      "properties": {
        "name": "常寂光寺塔婆（多宝塔）"
      },
      "geometry": {
        "type": "Point",
        "coordinates": [
          135.668182,
          35.01952321
        ]
      }
    },
    {
      "type": "Feature",
      "properties": {
        "name": "松殿山荘"
      },
      "geometry": {
        "type": "Point",
        "coordinates": [
          135.8022128,
          34.92188694
        ]
      }
    },
    {
      "type": "Feature",
      "properties": {
        "name": "松殿山荘"
      },